name,iata,icao,lat,lon,ico,alt
"A Coruna Airport",LCG,LECO,43.302059,-8.37725,ES,326
"Aachen Merzbruck Airport",AAH,EDKA,50.823051,6.186111,DE,623
"Aalborg Airport",AAL,EKYT,57.092781,9.849164,DK,10
"Aarhus Airport",AAR,EKAH,56.300011,10.619,DK,82
"Aarhus Sea Airport",QEA,EKAC,56.151993,10.247725,DK,1
"Aasiaat Airport",JEG,BGAA,68.72184,-52.784698,GL,74
"Abadan Airport",ABD,OIAA,30.371111,48.228329,IR,19
"Abakan International Airport",ABA,UNAA,53.740002,91.385002,RU,831
"Abbotsford International Airport",YXX,CYXX,49.025269,-122.360001,CA,195
"Aberdeen International Airport",ABZ,EGPD,57.201939,-2.19777,GB,215
"Aberdeen Regional Airport",ABR,KABR,45.439999,-98.419998,US,1302
"Abha Regional Airport",AHB,OEAB,18.24036,42.65662,SA,6858
"Abidjan Port Bouet Airport",ABJ,DIAP,5.261386,-3.92629,CI,21
"Abilene Regional Airport",ABI,KABI,32.411301,-99.681801,US,1790
"Abingdon Virginia Highlands Airport",VJI,KVJI,36.686111,-82.033333,US,2088
"Abu Dhabi Al Bateen Executive Airport",AZI,OMAD,24.428329,54.45808,AE,16
"Abu Dhabi Al Dhafra Air Base",DHF,OMAM,24.248199,54.547699,AE,77
"Abu Dhabi International Airport",AUH,OMAA,24.43297,54.651131,AE,88
"Abu Musa Island Airport",AEU,OIBA,25.8757,55.033001,IR,23
"Abu Simbel Airport",ABS,HEBL,22.37595,31.611719,EG,616
"Abuja Nnamdi Azikiwe International Airport",ABV,DNAA,9.006792,7.263172,NG,1123
"Acapulco International Airport",ACA,MMAA,16.757059,-99.753899,MX,16
"Accra Kotoka International Airport",ACC,DGAA,5.605186,-0.16678,GH,205
"Ada Municipal Airport",ADT,KADH,34.804298,-96.671303,US,1016
"Adak Airport",ADK,PADK,51.87796,-176.645996,US,18
"Adampur Airport",AIP,VIAX,31.433056,75.760559,IN,776
"Adana Sakirpasa Airport",ADA,LTAF,36.982159,35.28038,TR,65
"Addis Ababa Bole Airport",ADD,HAAB,8.977889,38.799309,ET,7656
"Adelaide Airport",ADL,YPAD,-34.945,138.530502,AU,20
"Aden International Airport",ADE,OYAA,12.82954,45.02879,YE,7
"Adiyaman Airport",ADF,LTCP,37.731361,38.468929,TR,2216
"Adrar Airport",AZR,DAUA,27.83758,-0.18641,DZ,919
"Adrian Lenawee County Airport",ADG,KADG,41.86607,-84.078293,US,798
"Afton Municipal Airport",AFO,KAFO,42.711201,-110.942001,US,6221
"Agades Mano Dayak International Airport",AJY,DRZA,16.96599,8.000114,NE,1657
"Agadir Al Massira Airport",AGA,GMAD,30.324989,-9.41306,MA,250
"Agartala Airport",IXA,VEAT,23.886971,91.240448,IN,46
"Agatti Airport",AGX,VOAT,10.82365,72.176041,IN,14
"Agen La Garenne Airport",AGF,LFBA,44.174709,0.590619,FR,204
"Aghajari Airport",AKW,OIAG,30.7444,49.6772,IR,88
"Agra Airport",AGR,VIAG,27.15583,77.960892,IN,551
"Agri Airport",AJI,LTCO,39.65456,43.027149,TR,5462
"Agua Boa Airport",GGB,SWHP,-14.019444,-52.152222,BR,1506
"Aguachica Hacaritama Airport",HAY,SKAG,8.246203,-73.579628,CO,531
"Aguadilla Rafael Hernandez Airport",BQN,TJBQ,18.49486,-67.129402,PR,237
"Aguascalientes International Airport",AGU,MMAS,21.705549,-102.317001,MX,6112
"Ahe Airport",AHE,NTHE,-14.42759,-146.255981,PF,11
"Ahmedabad International Airport",AMD,VAAH,23.07724,72.634651,IN,189
"Ahwaz International Airport",AWZ,OIAW,31.337429,48.761951,IR,66
"Aiken Municipal Airport",AIK,KAIK,33.649399,-81.684998,US,528
"Airai Roman Tmetuchl International Airport",ROR,PTRO,7.367303,134.544205,PW,176
"Aitutaki Airport",AIT,NCAI,-18.8309,-159.764008,CK,14
"Aix-en-Provence Airport",QXB,LFMA,43.50528,5.367222,FR,368
"Aizawl Lengpui Airport",AJL,VELP,23.838442,92.620361,IN,1001
"Ajaccio Napoleon Bonaparte Airport",AJA,LFKJ,41.923882,8.8025,FR,16
"Akiak Airport",AKI,PFAK,60.902901,-161.231003,US,30
"Akita Airport",AXT,RJSK,39.615551,140.218597,JP,313
"Aklavik Airport",LAK,CYKD,68.223297,-135.005997,CA,23
"Akron Canton Airport",CAK,KCAK,40.91608,-81.442101,US,1225
"Akron Fulton International Airport",AKC,KAKR,41.037498,-81.466904,US,1067
"Aksu Airport",AKU,ZWAK,41.262501,80.291664,CN,3816
"Aktau Airport",SCO,UATE,43.86005,51.091969,KZ,73
"Aktion National Airport",PVK,LGPZ,38.925461,20.76531,GR,11
"Aktobe Airport",AKX,UATT,50.245831,57.206661,KZ,738
"Akulivik Airport",AKV,CYKO,60.818611,-78.148613,CA,75
"Akure Airport",AKR,DNAK,7.246739,5.301008,NG,1100
"Akureyri Airport",AEY,BIAR,65.658607,-18.072201,IS,6
"Al Ain International Airport",AAN,OMAL,24.26166,55.609161,AE,869
"Al Hoceima Cherif Al Idrissi Airport",AHU,GMTA,35.177101,-3.83952,MA,95
"Al Najaf International Airport",NJF,ORNI,31.991667,44.404167,IQ,108
"Al Udeid Air Base",XJD,OTBH,25.114941,51.316105,QA,130
"Al Ula  Airport",ULH,OEAO,26.480862,38.116653,SA,2017
"Al Wajh Airport",EJH,OEWJ,26.198334,36.476112,SA,66
"Al-Baha Domestic Airport",ABT,OEBA,20.296129,41.63427,SA,5486
"Al-Qamishli Airport",KAC,OSKL,37.031025,41.205559,SY,1480
"Al-Qassim International Airport",ELQ,OEGS,26.30282,43.773911,SA,2126
"Alakanuk Airport",AUK,PAUK,62.683056,-164.722198,US,22
"Alamogordo White Sands Regional Airport",ALM,KALM,32.845833,-105.985275,US,4200
"Alamosa San Luis Valley Regional Airport",ALS,KALS,37.43491,-105.865997,US,7539
"Albacete Airport",ABC,LEAB,38.948502,-1.86352,ES,2302
"Albany Airport",ALH,YABA,-34.939999,117.800003,AU,233
"Albany International Airport",ALB,KALB,42.749111,-73.801903,US,285
"Albany Southwest Georgia Regional Airport",ABY,KABY,31.535509,-84.194397,US,196
"Albenga Clemente Panero International Airport",ALL,LIMG,44.050598,8.127428,IT,148
"Albert Picardie Airport",BYF,LFAQ,49.9715,2.69766,FR,364
"Albi Le Sequestre Airport",LBI,LFCI,43.913269,2.11675,FR,564
"Albuquerque International Airport",ABQ,KABQ,35.040218,-106.609001,US,5355
"Albury Airport",ABX,YMAY,-36.067699,146.957993,AU,539
"Aldan Airport",ADH,UEEA,58.602772,125.408798,RU,2241
"Alderney Airport",ACI,EGJA,49.706108,-2.21472,GG,290
"Alegrete Novo Airport",ALQ,SSLT,-29.8127,-55.893398,BR,459
"Aleppo International Airport",ALP,OSAP,36.180672,37.22435,SY,1276
"Alert Airport",YLT,CYLT,82.517776,-62.280556,CA,100
"Alesund Vigra Airport",AES,ENAL,62.560371,6.110164,NO,69
"Alexander City Thomas C Russell Field",ALX,KALX,32.933334,-85.949997,US,686
"Alexandria Borg El Arab Airport",HBE,HEBA,30.91766,29.6964,EG,177
"Alexandria International Airport",AEX,KAEX,31.32737,-92.5485,US,89
"Alexandria Municipal Airport",AXN,KAXN,45.867222,-95.394165,US,1425
"Alexandroupolis International Airport",AXD,LGAL,40.855862,25.956261,GR,24
"Algeciras Heliport",QYH,LEAG,36.128887,-5.441111,ES,98
"Alghero Fertilia Airport",AHO,LIEA,40.63213,8.290772,IT,87
"Algiers Houari Boumediene Airport",ALG,DAAG,36.69101,3.215408,DZ,82
"Alicante Airport",ALC,LEAL,38.282162,-0.55815,ES,142
"Alice International Airport",ALI,KALI,27.740879,-98.026901,US,178
"Alice Springs Airport",ASP,YBAS,-23.806601,133.902206,AU,1789
"Allahabad Airport",IXD,VEAB,25.439886,81.734406,IN,319
"Allakaket Airport",AET,PFAL,66.551804,-152.621994,US,441
"Allendorf Airport",QEQ,EDFQ,51.035713,8.679523,DE,1164
"Allentown Lehigh Valley International Airport",ABE,KABE,40.652302,-75.440399,US,393
"Alliance Municipal Airport",AIA,KAIA,42.053219,-102.803001,US,3931
"Alma Airport",YTF,CYTF,48.509655,-71.642715,CA,434
"Almaty International Airport",ALA,UAAA,43.35207,77.040497,KZ,2234
"Almeirim Airport",GGF,SNYA,-1.479167,-52.578056,BR,584
"Almeria Airport",LEI,LEAM,36.843929,-2.37009,ES,70
"Alor Island Airport",ARD,WATM,-8.13234,124.597,ID,10
"Alor Setar Sultan Abdul Halim Airport",AOR,WMKA,6.189667,100.398102,MY,15
"Alpena County Regional Airport",APN,KAPN,45.081669,-83.555832,US,689
"Alta Airport",ALF,ENAT,69.976112,23.37166,NO,9
"Alta Floresta Airport",AFL,SBAT,-9.86609,-56.106201,BR,947
"Altai Airport",LTI,ZMAT,46.650002,96.416664,MN,7261
"Altamira Airport",ATM,SBHT,-3.2539,-52.253899,BR,368
"Altay Airport",AAT,ZWAT,47.750362,88.084442,CN,1750
"Altenburg Nobitz Airport",AOC,EDAC,50.981812,12.50636,DE,640
"Altenstadt Air Base",QCA,ETHA,47.835518,10.870574,DE,2423
"Alton St. Louis Regional Airport",ALN,KALN,38.890301,-90.045998,US,544
"Altoona Blair County Airport",AOO,KAOO,40.296371,-78.32,US,1503
"Alverca Airport",AVR,LPAR,38.884068,-9.029201,PT,5
"Alzintan Airport",ZIS,HLZN,31.775,12.25,LY,2080
"Amakusa Airport",AXJ,RJDA,32.483261,130.15564,JP,328
"Amami Airport",ASJ,RJKA,28.43063,129.712494,JP,27
"Amarillo Rick Husband  International Airport",AMA,KAMA,35.21936,-101.705002,US,3607
"Amarillo Tradewind Airport",TDW,KTDW,35.169899,-101.825996,US,3649
"Ambler Airport",ABL,PAFM,67.087502,-157.84584,US,289
"Ambon Pattimura Airport",AMQ,WAPP,-3.71026,128.089096,ID,33
"Amboseli Airport",ASV,HKAM,-2.633,37.25,KE,3755
"Ames Municipal Airport",AMW,KAMW,41.992001,-93.621803,US,956
"Amman Civil Airport",ADJ,OJAM,31.9727,35.991562,JO,2555
"Amman Queen Alia International Airport",AMM,OJAI,31.722549,35.99321,JO,2395
"Amos Magny Airport",YEY,CYEY,48.564838,-78.249146,CA,1076
"Amritsar International Airport",ATQ,VIAR,31.709591,74.797256,IN,756
"Amsterdam Schiphol Airport",AMS,EHAM,52.308609,4.763889,NL,11
"Anadyr Ugolny Airport",DYR,UHMA,64.730003,177.740005,RU,194
"Anaktuvuk Pass Airport",AKP,PAKP,68.129997,-151.740005,US,2106
"Anapa Airport",AAQ,URKA,45.00209,37.347271,RU,174
"Anapolis Airport",APS,SBAN,-16.22714,-48.963783,BR,3712
"Anchorage Elmendorf Air Force Base",EDF,PAED,61.251339,-149.806,US,213
"Anchorage Merrill Field Airport",MRI,PAMR,61.213539,-149.843994,US,137
"Anchorage Ted Stevens International Airport",ANC,PANC,61.174358,-149.996002,US,151
"Ancona Airport",AOI,LIPY,43.616341,13.36231,IT,49
"Andenes Andoya Airport",ANX,ENAN,69.292503,16.144159,NO,43
"Anderson Municipal Airport",AID,KAID,40.108665,-85.613815,US,891
"Anderson Regional Airport",AND,KAND,34.494579,-82.709297,US,782
"Andizhan Airport",AZN,UTFA,40.72773,72.294006,UZ,1515
"Andorra La Seu de Urgel Airport",LEU,LESU,42.34058,1.410326,ES,2625
"Andros Town International Airport",ASD,MYAF,24.69828,-77.795601,BS,5
"Anegada Auguste George Airport",NGD,TUPA,18.727394,-64.330055,VG,21
"Angeles City Clark International Airport",CRK,RPLC,15.18598,120.560303,PH,484
"Angelholm Helsingborg Airport",AGH,ESTA,56.29607,12.84713,SE,68
"Angers Loire Airport",ANE,LFJR,47.56028,-0.312222,FR,194
"Anglesey Airport",VLY,EGOV,53.240002,-4.53,GB,-1
"Angola Tri-State Steuben County Airport",ANQ,KANQ,41.639702,-85.083504,US,995
"Angouleme Cognac International Airport",ANG,LFBU,45.729469,0.219153,FR,436
"Angra dos Reis Airport",GDR,SDAG,-22.975279,-44.30722,BR,10
"Aniak Airport",ANI,PANI,61.581669,-159.54306,US,89
"Anjouan Ouani Airport",AJN,FMCV,-12.1316,44.430271,KM,62
"Ankang Fuqiang Airport",AKA,ZLAK,32.708099,108.931046,CN,849
"Ankara Esenboga International Airport",ESB,LTAC,40.128078,32.995079,TR,3125
"Ankeny Regional Airport",QQK,KIKV,41.691113,-93.566391,US,910
"Ann Airport",VBA,VYAN,19.770643,94.026405,MM,43
"Ann Arbor Municipal Airport",ARB,KARB,42.223057,-83.74556,US,839
"Annaba Rabah Bitat Airport",AAE,DABB,36.82222,7.809167,DZ,16
"Annapolis Lee Airport",ANP,KANP,38.942902,-76.568398,US,34
"Annecy Mont Blanc Airport",NCY,LFLP,45.930771,6.106289,FR,1519
"Annemasse Airport",QYA,LFLI,46.19194,6.269444,FR,1617
"Anniston Regional",ANB,KANB,33.588161,-85.858101,US,612
"Anqing Tianzhushan Airport",AQG,ZSAQ,30.582222,117.050278,CN,-1
"Anshan Teng'ao Airport",AOG,ZYAS,41.103523,122.855835,CN,53
"Anshun Huangguoshu Airport",AVA,ZUAS,26.260555,105.873337,CN,4812
"Antakya Hatay Airport",HTY,LTDA,36.362778,36.282223,TR,25
"Antalya Airport",AYT,LTAI,36.898731,30.800461,TR,177
"Antananarivo Ivato International Airport",TNR,FMMI,-18.7969,47.478802,MG,4198
"Antigua V. C. Bird International Airport",ANU,TAPA,17.13674,-61.792599,AG,62
"Antofagasta International Airport",ANF,SCFA,-23.444401,-70.445099,CL,455
"Antsiranana Arrachart Airport",DIE,FMNA,-12.3494,49.29174,MG,374
"Antwerp International Airport",ANR,EBAW,51.189442,4.460278,BE,39
"Anvik Airport",ANV,PANV,62.647778,-160.188889,US,309
"Aomori Airport",AOJ,RJSA,40.734718,140.690796,JP,664
"Aosta Airport",AOT,LIMW,45.738499,7.36872,IT,1791
"Apalachicola Regional Airport",AAF,KAAF,29.733334,-84.98333,US,20
"Apartado Airport",APO,SKLC,7.817678,-76.717659,CO,46
"Apatity Airport",KVK,ULMK,67.463303,33.588299,RU,515
"Apia Faleolo International Airport",APW,NSFA,-13.8296,-171.996994,WS,58
"Apple Valley Airport",APV,KAPV,34.575298,-117.185997,US,3062
"Appleton International Airport",ATW,KATW,44.258091,-88.518997,US,918
"Apucarana Airport",APU,SSAP,-23.609501,-51.384499,BR,2641
"Apui Airport",IUP,SWYN,-7.1727,-59.839409,BR,614
"Aqaba King Hussein International Airport",AQJ,OJAQ,29.61161,35.018059,JO,175
"Aracaju Santa Maria Airport",AJU,SBAR,-10.984,-37.070301,BR,23
"Aracati Airport",ARX,SBAC,-4.56861,-37.804722,BR,128
"Aracatuba Airport",ARU,SBAU,-21.1413,-50.424702,BR,1361
"Arad International Airport",ARW,LRAR,46.176552,21.26202,RO,352
"Araguaina Airport",AUX,SWGN,-7.227867,-48.240467,BR,771
"Arak Airport",AJK,OIHR,34.1381,49.847301,IR,5440
"Arapongas Airport",APX,SSOG,-23.3529,-51.491699,BR,2599
"Arar Domestic Airport",RAE,OERR,30.90658,41.13821,SA,1813
"Araraquara Airport",AQA,SBAQ,-21.812,-48.132999,BR,2334
"Araripina Airport",JAW,SNAB,-7.5864,-40.5354,BR,2421
"Arauca Santiago Perez Quiroz Airport",AUC,SKUC,7.068889,-70.7369,CO,420
"Araxa Airport",AAX,SBAX,-19.562658,-46.961014,BR,3247
"Arba Minch Airport",AMH,HAAM,6.039389,37.59045,ET,3895
"Arcachon La Teste-de-Buch Airport",XAC,LFCH,44.59861,-1.11472,FR,49
"Arcata Eureka Airport",ACV,KACV,40.978111,-124.108002,US,222
"Arctic Bay Airport",YAB,CYAB,73.006386,-85.047218,CA,72
"Arctic Village",ARC,PARC,68.110001,-145.570007,US,2092
"Ardabil Airport",ADU,OITL,38.323826,48.421249,IR,4317
"Ardmore Airport",AMZ,NZAR,-37.029701,174.973007,NZ,111
"Ardmore Municipal Airport",ADM,KADM,34.303009,-97.0196,US,776
"Arendal Gullknapp Airport",QCG,ENGK,58.518326,8.707467,NO,405
"Arequipa Rodriguez Ballon International Airport",AQP,SPQU,-16.341,-71.583,PE,8405
"Argyle Airport",GYL,YARG,-16.629999,128.449997,AU,522
"Arica Chacalluta International Airport",ARI,SCAR,-18.348499,-70.338699,CL,167
"Aripuana Airport",AIR,SSOU,-10.186673,-59.457531,BR,738
"Ariquemes Airport",AQM,SJOG,-9.880993,-63.047237,BR,461
"Arkhangelsk Talagi Airport",ARH,ULAA,64.600281,40.71666,RU,62
"Arlington Municipal Airport",QQW,KAWO,48.160831,-122.15889,US,142
"Arlington Municipal Airport",QQG,KGKY,32.66,-97.089996,US,628
"Armenia El Eden International Airport",AXM,SKAR,4.453333,-75.7658,CO,3990
"Armidale Airport",ARM,YARM,-30.528334,151.616669,AU,3556
"Artesia Municipal Airport",ATS,KATS,32.852501,-104.468002,US,3541
"Arthur's Town Airport",ATC,MYCA,24.628611,-75.671387,BS,18
"Arusha Airport",ARK,HTAR,-3.36779,36.633331,TZ,4550
"Arutua Airport",AXR,NTGU,-15.2463,-146.619995,PF,9
"Arviat Airport",YEK,CYEK,61.094158,-94.070801,CA,32
"Arvidsjaur Airport",AJR,ESNX,65.590271,19.28194,SE,1245
"Arxan Yiershi Airport",YIE,ZBES,47.310555,119.911942,CN,2918
"Asaba International Airport",ABB,DNAS,6.203055,6.667222,NG,242
"Asahikawa Airport",AKJ,RJEC,43.67083,142.447495,JP,721
"Ascension Island Airport",ASI,FHAW,-7.9696,-14.3937,SH,278
"Asheville Regional Airport",AVL,KAVL,35.436192,-82.541801,US,2164
"Ashgabat International Airport",ASB,UTAA,37.986809,58.360958,TM,692
"Asmara International Airport",ASM,HHAS,15.29185,38.91066,ER,7661
"Asosa Airport",ASO,HASO,10.01855,34.58625,ET,5120
"Aspen Pitkin County Airport",ASE,KASE,39.22316,-106.867996,US,7838
"Assaluyeh Persian Gulf Airport",PGU,OIBP,27.383959,52.735516,IR,40
"Assiut Airport",ATZ,HEAT,27.046499,31.01198,EG,772
"Astana Nursultan Nazarbayev International Airport",NQZ,UACC,51.022221,71.466942,KZ,1165
"Astoria Regional Airport",AST,KAST,46.159721,-123.879997,US,15
"Astrakhan Narimanovo Airport",ASF,URWA,46.283329,48.006271,RU,65
"Asturias Airport",OVD,LEAS,43.56356,-6.03462,ES,416
"Astypalaia Island National Airport",JTY,LGPL,36.579887,26.375822,GR,165
"Asuncion Silvio Pettirossi International Airport",ASU,SGAS,-25.239799,-57.5191,PY,292
"Aswan International Airport",ASW,HESN,23.96435,32.819969,EG,662
"Atambua Haliwen Airport",ABU,WATA,-9.07444,124.904404,ID,75
"Athens Ben Epps Airport",AHN,KAHN,33.95195,-83.324722,US,808
"Athens Eleftherios Venizelos",ATH,LGAV,37.936352,23.94446,GR,308
"Athens Gordon K. Bush Airport",ATO,KUNI,39.210999,-82.2314,US,766
"Athens McMinn County Airport",MMI,KMMI,35.397221,-84.5625,US,858
"Atlanta Cobb County Airport",QQR,KRYY,34.013058,-84.59861,US,1040
"Atlanta DeKalb Peachtree Airport",PDK,KPDK,33.869999,-84.300003,US,1003
"Atlanta Fulton County Airport",FTY,KFTY,33.777195,-84.521141,US,821
"Atlanta Hartsfield-Jackson International Airport",ATL,KATL,33.636719,-84.428001,US,1026
"Atlanta Regional Airport",QTF,KFFC,33.357475,-84.572121,US,784
"Atlantic City International Airport",ACY,KACY,39.457581,-74.577103,US,74
"Atlantic City Monmouth Executive Airport",BLM,KBLM,40.186668,-74.124443,US,153
"Atqasuk Airport",ATK,PATQ,70.5,-157.333328,US,96
"Attawapiskat Airport",YAT,CYAT,52.919998,-82.43,CA,31
"Atuona Airport",AUQ,NTMN,-9.76879,-139.011002,PF,1481
"Atwater Castle Airport",MER,KMER,37.380482,-120.568001,US,191
"Atyrau Airport",GUW,UATG,47.121941,51.821381,KZ,-72
"Auburn Airport",LEW,KLEW,44.048611,-70.283607,US,288
"Auburn Municipal Airport",AUN,KAUN,38.9548,-121.082001,US,1539
"Auburn University Regional Airport",AUO,KAUO,32.615101,-85.433998,US,777
"Auckland Airport",AKL,NZAA,-37.007999,174.791595,NZ,23
"Augsburg Airport",AGB,EDMA,48.425152,10.93176,DE,1515
"Augusta Daniel Field Airport",DNL,KDNL,33.468098,-82.0392,US,414
"Augusta Regional Airport",AGS,KAGS,33.369942,-81.9645,US,144
"Augusta State Airport",AUG,KAUG,44.320648,-69.797302,US,352
"Aupaluk Airport",YPJ,CYLA,59.296665,-69.599724,CA,117
"Aurangabad Airport",IXU,VAAU,19.86272,75.398109,IN,1911
"Aurillac Tronquieres Airport",AUR,LFLW,44.897579,2.416719,FR,2096
"Aurukun Airport",AUU,YAUR,-13.353889,141.72084,AU,29
"Austin Bergstrom International Airport",AUS,KAUS,30.194521,-97.6698,US,542
"Austin Executive Airport",EDC,KEDC,30.389999,-97.559998,US,620
"Austin Municipal Airport",AUM,KAUM,43.663853,-92.933189,US,1227
"Auxerre Branches Airport",AUF,LFLA,47.846321,3.496578,FR,523
"Avalon Catalina Airport",AVX,KAVX,33.404999,-118.415833,US,1602
"Avarua Rarotonga International Airport",RAR,NCRG,-21.2027,-159.804993,CK,19
"Aviano Air Base",AVB,LIPA,46.031879,12.59647,IT,410
"Avignon Caumont Airport",AVN,LFMV,43.906582,4.902028,FR,124
"Avoca Wilkes-Barre/Scranton International Airport",AVP,KAVP,41.33847,-75.723297,US,962
"Awali Sakhir Air Base",KHB,OBKH,26.034721,50.524445,BH,49
"Awasa Airport",AWA,HALA,7.095,38.398335,ET,5604
"Axum Airport",AXU,HAAX,14.14675,38.772831,ET,6915
"Ayacucho Airport",AYP,SPHO,-13.1548,-74.204399,PE,8917
"Ayers Rock Airport",AYQ,YAYE,-25.1861,130.975494,AU,1626
"Babo Airport",BXB,WASO,-2.53224,133.438797,ID,10
"Bacau International Airport",BCM,LRBC,46.521938,26.910271,RO,607
"Bacolod City Silay International Airport",BCD,RPVB,10.776905,123.018394,PH,25
"Badajoz Airport",BJZ,LEBZ,38.891251,-6.82133,ES,609
"Badin Talhar Airport",BDN,OPTH,24.841511,68.838402,PK,28
"Badu Island Airport",BDD,YBAU,-10.15,142.173401,AU,14
"Bafoussam Airport",BFX,FKKU,5.536919,10.35458,CM,4347
"Bage Comandante Gustavo Kraemer Airport",BGX,SBBG,-31.390499,-54.112202,BR,600
"Baghdad International Airport",BGW,ORBI,33.262501,44.234444,IQ,114
"Baglung Airport",BGL,VNBL,28.212799,83.666298,NP,3320
"Baguio Loakan Airport",BAG,RPUB,16.375099,120.619598,PH,4251
"Bahawalpur Airport",BHV,OPBW,29.348057,71.717781,PK,392
"Bahia Blanca Comandante Espora Airport",BHI,SAZB,-38.724899,-62.1693,AR,246
"Bahia Solano Jose Celestino Mutis Airport",BSC,SKBS,6.202936,-77.394798,CO,80
"Bahir Dar Airport",BJR,HABD,11.60807,37.32164,ET,5976
"Bahrain International Airport",BAH,OBBI,26.27083,50.63361,BH,6
"Baia Mare Airport",BAY,LRBM,47.658379,23.47002,RO,605
"Baicheng Chang'an Airport",DBC,ZLGL,45.50528,123.019722,CN,463
"Baie Comeau Airport",YBC,CYBC,49.1325,-68.204399,CA,71
"Bainbridge Decatur County Airport",BGE,KBGE,30.972855,-84.635307,US,134
"Bairnsdale Airport",BSJ,YBNS,-37.887501,147.567993,AU,165
"Baise Bama Airport",AEB,ZGBS,23.719469,106.967773,CN,480
"Baishan Changbaishan Airport",NBS,ZYBS,42.088055,127.548889,CN,2883
"Bajawa Turelelo Soa Airport",BJW,WATB,-8.7125,121.0625,ID,4326
"Bakelalan Airport",BKM,WBGO,3.973691,115.617157,MY,3039
"Baker City Municipal Airport",BKE,KBKE,44.837299,-117.808998,US,3373
"Baker Lake Airport",YBK,CYBK,64.298882,-96.077698,CA,59
"Bakersfield Meadows Field Airport",BFL,KBFL,35.433861,-119.056999,US,510
"Baku Heydar Aliyev International Airport",GYD,UBBB,40.467499,50.046661,AZ,10
"Balboa Panama Pacifico International Airport",BLB,MPPA,8.914011,-79.598091,PA,33
"Balikpapan Sepinggan Airport",BPN,WALL,-1.26827,116.894402,ID,12
"Balkhash Airport",BXH,UAAH,46.893299,75.004997,KZ,1446
"Ballera Airport",BBL,YLLE,-27.408333,141.808334,AU,385
"Ballina Byron Gateway Airport",BNK,YBNA,-28.833799,153.5625,AU,7
"Balmaceda Airport",BBA,SCBA,-45.916,-71.6894,CL,1722
"Baltimore Martin State Airport",MTN,KMTN,39.321667,-76.411667,US,22
"Baltimore Washington International Airport",BWI,KBWI,39.175362,-76.668297,US,146
"Baltrum Airport",BMR,EDWZ,53.724724,7.373333,DE,7
"Bam Airport",BXR,OIKM,29.084208,58.449783,IR,3184
"Bamaga Northern Peninsula Airport",ABM,YNPE,-10.9508,142.459396,AU,34
"Bamako Senou International Airport",BKO,GABS,12.53354,-7.94994,ML,1247
"Bamberg Breitenau Airport",QCB,EDQA,49.921146,10.915216,DE,816
"Bamenda Airport",BPC,FKKV,6.039239,10.12263,CM,4065
"Ban Houeisay Airport",HOE,VLHS,20.260511,100.436783,LA,1380
"Banda Aceh International Airport",BTJ,WITT,5.523522,95.420372,ID,65
"Bandar Abbas International Airport",BND,OIKB,27.218309,56.37785,IR,22
"Bandar Lampung Radin Inten II Airport",TKG,WICT,-5.2425,105.178886,ID,282
"Bandar Lengeh Airport",BDH,OIBL,26.532,54.824841,IR,67
"Bandung Husein Sastranegara International Airport",BDO,WICC,-6.90062,107.576202,ID,2436
"Bangkok Don Mueang International Airport",DMK,VTBD,13.9125,100.606697,TH,9
"Bangkok Suvarnabhumi Airport",BKK,VTBS,13.6811,100.7472,TH,5
"Bangor International Airport",BGR,KBGR,44.807442,-68.828102,US,192
"Bangui Airport",BGF,FEFF,4.398475,18.51878,CF,1208
"Banja Luka International Airport",BNX,LQBK,44.941441,17.297501,BA,400
"Banjarmasin Syamsudin Noor Airport",BDJ,WAOO,-3.44235,114.762497,ID,66
"Banjul International Airport",BJL,GBYD,13.33796,-16.652201,GM,95
"Bankstown Airport",BWU,YSBK,-33.9244,150.988297,AU,29
"Baoshan Yunduan Airport",BSD,ZPBS,25.055182,99.16143,CN,5514
"Baotou Erliban Airport",BAV,ZBOW,40.55999,109.996902,CN,123
"Barahona Maria Montez International Airport",BRX,MDBH,18.251459,-71.120399,DO,10
"Barcaldine Airport",BCI,YBAR,-23.559168,145.301941,AU,878
"Barcelona El Prat Airport",BCN,LEBL,41.29707,2.078463,ES,12
"Barcelona Jose Antonio Anzoategui International Airport",BLA,SVBC,10.10713,-64.689102,VE,26
"Barcelos Airport",BAZ,SWBC,-0.98,-62.91,BR,112
"Bardstown Samuels Field Airport",BRY,KBRY,37.814301,-85.499603,US,669
"Bardufoss Airport",BDU,ENDU,69.055748,18.54035,NO,252
"Bareilly Airport",BEK,VIBY,28.422232,79.450691,IN,574
"Bari Karol Wojtyla Airport",BRI,LIBD,41.138851,16.76059,IT,177
"Barimunya Airport",BYP,YBRY,-22.673889,119.166115,AU,2091
"Barinas Airport",BNS,SVBI,8.619575,-70.220802,VE,666
"Bario Airport",BBN,WBGZ,3.736944,115.469398,MY,3450
"Barisal Airport",BZL,VGBR,22.798943,90.301445,BD,20
"Barnaul Airport",BAX,UNBB,53.36377,83.538528,RU,838
"Barquisimeto Jacinto Lara International Airport",BRM,SVBM,10.04274,-69.358597,VE,2042
"Barra Airport",BRR,EGPR,57.016998,-7.433,GB,5
"Barra do Garcas Airport",BPG,SBBW,-15.8613,-52.388802,BR,1147
"Barrancabermeja Yariguies Airport",EJA,SKEJ,7.024331,-73.806801,CO,412
"Barranquilla Ernesto Cortissoz International Airport",BAQ,SKBQ,10.88946,-74.780602,CO,98
"Barreiras Airport",BRA,SNBR,-12.073056,-45.008331,BR,2444
"Barreirinhas Airport",BRB,SSRS,-2.756628,-42.802662,BR,25
"Barrie Lake Simcoe Regional Airport",YLK,CYLS,44.48605,-79.555603,CA,947
"Barrow Airport",BRW,PABR,71.285439,-156.766006,US,52
"Barrow Island Airport",BWB,YBWX,-20.864401,115.405998,AU,26
"Barrow-in-Furness Walney Island Airport",BWF,EGNL,54.131161,-3.26366,GB,173
"Barter Island LRRS Airport",BTI,PABA,70.131943,-143.623886,US,2
"Bartlesville Municipal Airport",BVO,KBVO,36.762501,-96.0112,US,711
"Bartow Municipal Airport",BOW,KBOW,27.943333,-81.783333,US,125
"Basco Airport",BSO,RPUO,20.453056,121.977776,PH,291
"Basel Mulhouse-Freiburg EuroAirport",BSL,LFSB,47.5989,7.5283,FR,885
"Basra International Airport",BSR,ORMM,30.549061,47.66214,IQ,11
"Basseterre Robert L. Bradshaw International Airport",SKB,TKPK,17.31119,-62.718601,KN,170
"Bastia Poretta Airport",BIA,LFKB,42.549999,9.484722,FR,26
"Bata Airport",BSG,FGBT,1.905469,9.805681,GQ,13
"Batagay Airport",BQJ,UEBB,67.648888,134.695007,RU,738
"Batam Hang Nadim Airport",BTH,WIDD,1.121028,104.118698,ID,126
"Batesville Regional Airport",BVX,KBVX,35.7262,-91.647301,US,465
"Bathinda Airport",BUP,VIBT,30.2701,74.755798,IN,662
"Bathurst Airport",ZBF,CZBF,47.629719,-65.7388,CA,193
"Bathurst Airport",BHS,YBTH,-33.400002,149.649994,AU,2435
"Batman Airport",BAL,LTCJ,37.928959,41.116581,TR,1822
"Batna International Airport",BLJ,DABT,35.759167,6.3225,DZ,2697
"Baton Rouge Metropolitan Airport",BTR,KBTR,30.5329,-91.149803,US,70
"Batsfjord Airport",BJF,ENBS,70.600273,29.692499,NO,490
"Batticaloa International Airport",BTC,VCCB,7.705388,81.67762,LK,20
"Battle Creek Kalamazoo International Airport",BTL,KBTL,42.307301,-85.251503,US,952
"Battle Mountain Airport",BAM,KBAM,40.599747,-116.875999,US,4531
"Batu Licin Airport",BTW,WAOC,-3.41241,115.995003,ID,3
"Batumi International Airport",BUS,UGSB,41.610271,41.599689,GE,105
"Bau-Bau Betoambari Airport",BUW,WAAB,-5.48687,122.569,ID,164
"Baudette International Airport",BDE,KBDE,48.728382,-94.612091,US,1085
"Bauru Arealva Airport",JTC,SBAE,-22.157778,-49.068333,BR,1949
"Bayannur Tianjitai Airport",RLK,ZBYZ,40.926388,107.738892,CN,3400
"Bayreuth Bindlacher Berg Airport",BYU,EDQD,49.984421,11.63856,DE,1601
"Baytown Airport",HPY,KHPY,29.785995,-94.952606,US,27
"Bazhong Enyang Airport",BZX,ZUBZ,31.738056,106.64389,CN,1804
"Bearskin Lake Airport",XBE,CNE3,53.950001,-90.98333,CA,807
"Beatrice Municipal Airport",BIE,KBIE,40.299999,-96.75,US,1324
"Beaufort County Airport",BFT,KARW,32.410831,-80.635002,US,7
"Beaumont Jack Brooks Regional Airport",BPT,KBPT,29.95083,-94.020599,US,15
"Beaumont Municipal Airport",BMT,KBMT,30.0707,-94.215797,US,32
"Beaver County Airport",BFP,KBVI,40.772499,-80.391403,US,1253
"Bechar Boudghene Ben Ali Lotfi Airport",CBH,DAOR,31.645412,-2.279816,DZ,2660
"Beckley Raleigh County Memorial Airport",BKW,KBKW,37.784916,-81.125198,US,2491
"Bedford Hanscom Field",BED,KBED,42.469952,-71.289001,US,132
"Bedourie Airport",BEU,YBIE,-24.345043,139.459488,AU,305
"Beef Island Terrance B. Lettsome Airport",EIS,TUPJ,18.44483,-64.5429,VG,16
"Beida Al Abraq International Airport",LAQ,HLLQ,32.788612,21.964167,LY,2157
"Beihai Fucheng Airport",BHY,ZGBH,21.53944,109.2938,CN,83
"Beijing Capital International Airport",PEK,ZBAA,40.084152,116.592735,CN,116
"Beijing Daxing International Airport",PKX,ZBAD,39.509167,116.410553,CN,98
"Beijing Nanyuan Airport",NAY,ZBNY,39.782501,116.387779,CN,-1
"Beira Airport",BEW,FQBR,-19.7964,34.907551,MZ,33
"Beirut Rafic Hariri International Airport",BEY,OLBA,33.82093,35.48838,LB,87
"Beja International Airport",BYJ,LPBJ,38.078888,-7.9325,PT,636
"Bejaia Soummam Airport",BJA,DAAE,36.71199,5.069922,DZ,20
"Belaya Gora Airport",BGN,UESG,68.556946,146.234726,RU,25
"Belem Val de Cans International Airport",BEL,SBBE,-1.37925,-48.4762,BR,54
"Belfast City George Best  Airport",BHD,EGAC,54.61805,-5.8725,GB,15
"Belfast International Airport",BFS,EGAA,54.657501,-6.21583,GB,268
"Belgaum Airport",IXG,VOBM,15.85928,74.618294,IN,2487
"Belgorod International Airport",EGO,UUOB,50.639999,36.59,RU,734
"Belgrade Nikola Tesla Airport",BEG,LYBE,44.818439,20.30913,RS,335
"Belize City Philip S. W. Goldson International Airport",BZE,MZBZ,17.539141,-88.308197,BZ,15
"Belize City Sir Barry Bowen Municipal Airport",TZA,MZBE,17.516512,-88.194695,BZ,8
"Bella Coola Airport",QBC,CYBD,52.387501,-126.595833,CA,117
"Bellaire Antrim County Airport",ACB,KACB,44.988602,-85.198402,US,623
"Belle Ile En Mer Airport",BIC,LFEA,47.325184,-3.201334,FR,172
"Belleville MidAmerica St. Louis Airport",BLV,KBLV,38.54517,-89.835098,US,458
"Bellingham International Airport",BLI,KBLI,48.79269,-122.537003,US,170
"Belo Horizonte Pampulha Airport",PLU,SBBH,-19.851101,-43.9506,BR,2589
"Belo Horizonte Tancredo Neves International Airport",CNF,SBCF,-19.633699,-43.9688,BR,2715
"Beloyarsk Airport",EYK,USHQ,63.683056,66.68306,RU,82
"Bembridge Airport",BBP,EGHJ,50.678055,-1.109444,GB,53
"Bemidji Regional Airport",BJI,KBJI,47.509998,-94.93,US,1391
"Benalla Airport",BLN,YBLA,-36.551899,146.007004,AU,569
"Benbecula Airport",BEB,EGPL,57.48111,-7.36277,GB,19
"Bendigo Airport",BXG,YBDG,-36.739399,144.330002,AU,705
"Bengaluru Kempegowda International Airport",BLR,VOBL,13.198889,77.705559,IN,3002
"Benghazi Benina International Airport",BEN,HLLB,32.096779,20.26947,LY,433
"Bengkulu Fatmawati Soekarno Airport",BKS,WIGG,-3.8637,102.338997,ID,50
"Beni Airport",BNC,FZNP,0.576373,29.47238,CD,3491
"Beni Mellal Airport",BEM,GMMD,32.400002,-6.316667,MA,1700
"Benin Airport",BNI,DNBE,6.316981,5.599503,NG,258
"Benton Harbor Southwest Michigan Regional Airport",BEH,KBEH,42.128601,-86.428497,US,643
"Bentonville Municipal Airport",QTV,KVBT,36.345627,-94.219337,US,1288
"Bentonville Northwest Arkansas National Airport",XNA,KXNA,36.28186,-94.306801,US,1288
"Bequia J.F. Mitchell Airport",BQU,TVSB,12.9884,-61.262001,VC,15
"Berbera Airport",BBO,HCMI,10.38916,44.941101,SO,30
"Berens River Airport",YBV,CYBV,52.358696,-97.021408,CA,716
"Bergen Flesland Airport",BGO,ENBR,60.293381,5.218142,NO,170
"Bergen op Zoom Woensdrecht Air Base Airport",WOE,EHWO,51.4491,4.34203,NL,63
"Bergerac Dordogne Perigord Airport",EGC,LFBE,44.824429,0.520525,FR,171
"Berlevag Airport",BVG,ENBV,70.871384,29.034161,NO,42
"Berlin Brandenburg Airport",BER,EDDB,52.362877,13.503722,DE,157
"Bermuda L.F. Wade International Airport",BDA,TXKF,32.36404,-64.678703,BM,18
"Bern Airport",BRN,LSZB,46.914101,7.497153,CH,1674
"Bertoua Airport",BTA,FKKO,4.548611,13.72611,CM,2133
"Beryozovo Airport",EZV,USHB,63.924583,65.044853,RU,75
"Besancon La Veze Airport",QYB,LFQM,47.2066,6.08368,FR,1271
"Beslan Airport",OGZ,URMO,43.205002,44.606667,RU,1673
"Bethel Airport",BET,PABE,60.77977,-161.837997,US,128
"Bettles Airport",BTT,PABT,66.91394,-151.529007,US,647
"Beverly Regional Airport",BVY,KBVY,42.584202,-70.916496,US,107
"Beziers Cap d'Agde Airport",BZR,LFMU,43.323421,3.353397,FR,56
"Bhadrapur Airport",BDP,VNCG,26.570801,88.079597,NP,300
"Bhamo Banmaw Airport",BMO,VYBM,24.268354,97.249054,MM,377
"Bharatpur Airport",BHR,VNBP,27.678049,84.429443,NP,600
"Bhavnagar Airport",BHU,VABV,21.752199,72.185181,IN,44
"Bhopal Raja Bhoj Airport",BHO,VABP,23.28746,77.337372,IN,1719
"Bhubaneswar Biju Patnaik International Airport",BBI,VEBS,20.24436,85.81778,IN,138
"Bhuj Airport",BHJ,VABJ,23.287821,69.670143,IN,268
"Biak Frans Kaisiepo Airport",BIK,WABB,-1.19001,136.107895,ID,46
"Biala Podlaska Airport",BXP,EPBP,52.003056,23.143612,??,495
"Biarritz Pays Basque Airport",BIQ,LFBZ,43.468391,-1.523171,FR,223
"Bidar Airport",IXX,VOBR,17.908081,77.487144,IN,2186
"Bielefeld Airport",BFE,EDLI,51.964722,8.544444,DE,433
"Biella Cerrione Airport",QIC,LILE,45.495239,8.102928,IT,904
"Big Trout Lake Airport",YTL,CYTL,53.817501,-89.896896,CA,777
"Bijie Feixiong Airport",BFJ,ZUBJ,27.266666,105.479164,CN,4751
"Bikaner Nal Airport",BKB,VIBK,28.070601,73.207199,IN,750
"Bilaspur Airport",PAB,VEBU,21.988333,82.111115,IN,899
"Bilbao Airport",BIO,LEBB,43.30109,-2.9106,ES,138
"Bildudalur Airport",BIU,BIBD,65.641388,-23.54611,IS,18
"Billings Logan International Airport",BIL,KBIL,45.807659,-108.542,US,3652
"Billund Airport",BLL,EKBI,55.740318,9.151778,DK,247
"Bima Sultan Muhammad Salahudin Airport",BMU,WADB,-8.53964,118.687302,ID,3
"Bingol Airport",BGG,LTCU,38.861111,40.592499,TR,3490
"Bintulu Airport",BTU,WBGB,3.12385,113.020401,MY,74
"Biratnagar Airport",BIR,VNVT,26.484159,87.264442,NP,236
"Birch Creek Airport",KBC,KZ91,66.27504,-145.817902,US,435
"Birdsville Airport",BVI,YBDV,-25.898333,139.343338,AU,157
"Birjand International Airport",XBJ,OIMB,32.898048,59.266109,IR,4952
"Birmingham Airport",BHX,EGBB,52.45385,-1.74802,GB,327
"Birmingham Shuttlesworth International Airport",BHM,KBHM,33.563881,-86.752296,US,650
"Bisha Domestic Airport",BHH,OEBH,19.98435,42.62088,SA,3887
"Bishkek Manas International Airport",FRU,UCFM,43.061298,74.477547,KG,2058
"Bishop Eastern Sierra Regional Airport",BIH,KBIH,37.3731,-118.363998,US,4124
"Biskra Airport",BSK,DAUB,34.793282,5.738231,DZ,289
"Bismarck Municipal Airport",BIS,KBIS,46.774479,-100.758209,US,1661
"Bissau Osvaldo Vieira International Airport",OXB,GGOV,11.8947,-15.6536,GW,129
"Bitburg Airport",BBJ,EDRB,49.945332,6.565,DE,1223
"Black Tickle Airport",YBI,CCE4,53.469398,-55.785,CA,57
"Blackall Airport",BKQ,YBCK,-24.4277,145.428604,AU,928
"Blackbushe Airport",BBS,EGLK,51.323879,-0.8475,GB,325
"Blackpool International Airport",BLK,EGNH,53.772106,-3.038085,GB,34
"Blacksburg Virginia Tech Montgomery Executive Airport",BCB,KBCB,37.2076,-80.407799,US,2132
"Blagoveshchensk Ignatyevo Airport",BQS,UHBB,50.425388,127.412399,RU,638
"Blanding Municipal Airport",BDG,KBDG,37.583233,-109.483215,US,5817
"Blantyre Chileka International Airport",BLZ,FWCL,-15.679,34.97401,MW,2555
"Blenheim Woodbourne Airport",BHE,NZWB,-41.518299,173.870193,NZ,109
"Blimbingsari Airport",BWX,WADY,-8.31,114.340279,ID,110
"Block Island Airport",BID,KBID,41.169434,-71.579613,US,109
"Bloemfontein Airport",BFN,FABL,-29.092699,26.302441,ZA,4458
"Blois Le Breuil Airport",QYO,LFOQ,47.678616,1.208735,FR,384
"Blonduos Airport",BLO,BIBL,65.644997,-20.2875,IS,131
"Bloomington Central Illinois Regional Airport",BMI,KBMI,40.477112,-88.915901,US,871
"Bloomington Monroe County Airport",BMG,KBMG,39.139999,-86.610001,US,846
"Blountville Tri-Cities Regional Airport",TRI,KTRI,36.47522,-82.407402,US,1519
"Bluefields Airport",BEF,MNBL,11.99096,-83.774002,NI,41
"Blythe Airport",BLH,KBLH,33.616505,-114.716782,US,391
"Blytheville Arkansas International Airport",BYH,KBYH,35.96434,-89.943901,US,254
"Bo Airport",KBS,GFBO,7.95,-11.767,SL,328
"Boa Vista International Airport",BVB,SBBV,2.846311,-60.689999,BR,276
"Boa Vista Rabil Airport",BVC,GVBA,16.13653,-22.8888,CV,69
"Boca Raton Airport",BCT,KBCT,26.3785,-80.107597,US,13
"Bocas Del Toro International Airport",BOC,MPBO,9.340853,-82.250801,PA,10
"Bodaybo Airport",ODO,UIKB,57.860001,114.239998,RU,919
"Bodo Airport",BOO,ENBO,67.269157,14.36527,NO,42
"Bodrum Milas Airport",BJV,LTFE,37.25061,27.66431,TR,21
"Bogota El Dorado International Airport",BOG,SKBO,4.703056,-74.138298,CO,8361
"Boigu Island Airport",GIC,YBOI,-9.233333,142.21666,AU,10
"Boise Airport",BOI,KBOI,43.564362,-116.222,US,2871
"Bojnord Airport",BJB,OIMN,37.489719,57.308849,IR,3543
"Bokhtar International Airport",KQT,UTDT,37.866337,68.864517,TJ,1451
"Bol Brac Airport",BWK,LDSB,43.285702,16.679701,HR,1776
"Bole Alashankou Airport",BPL,ZWBL,44.895,82.299721,CN,1253
"Bologna Guglielmo Marconi Airport",BLQ,LIPE,44.535439,11.28866,IT,123
"Bolzano Airport",BZO,LIPB,46.46019,11.32638,IT,789
"Bonaire Flamingo International Airport",BON,TNCB,12.13104,-68.268501,BQ,20
"Bonaventure Airport",YVB,CYVB,48.07111,-65.460281,CA,123
"Bonito Airport",BYO,SBDB,-21.247299,-56.452499,BR,1180
"Bonn Hangelar Airport",QCH,EDKB,50.76889,7.163333,BR,196
"Bonnyville Airport",YBY,CYBF,54.299999,-110.739998,CA,1836
"Boolgeeda Airport",OCM,YBGD,-22.540001,117.275002,AU,1866
"Bor Podkamennaya Tunguska Airport",TGP,UNIP,61.59,89.979446,RU,213
"Bora Bora Airport",BOB,NTTB,-16.4443,-151.751007,PF,10
"Bordeaux Merignac Airport",BOD,LFBD,44.828609,-0.71527,FR,166
"Borger Hutchinson County Airport",BGD,KBGD,35.700901,-101.393997,US,3055
"Borkum Airport",BMK,EDWR,53.595501,6.709167,DE,3
"Borlange Dala Airport",BLE,ESSD,60.422009,15.51521,SE,503
"Bornholm Airport",RNN,EKRN,55.063259,14.75955,DK,52
"Borongan Airport",BPA,RPVW,11.67484,125.479462,PH,14
"Bosaso Airport",BSA,HCMF,11.283333,49.150002,SO,6
"Bost Airport",BST,OABT,31.55901,64.36409,AF,2464
"Boston Logan International Airport",BOS,KBOS,42.362968,-71.006401,US,20
"Bouake Airport",BYK,DIBK,7.7388,-5.07366,CI,1230
"Bouarfa Airport",UAR,GMFB,32.514172,-1.98167,MA,3633
"Boulder City Municipal Airport",BLD,KBVU,35.946777,-114.856377,US,2203
"Boulder Municipal Airport",WBU,KBDU,40.039398,-105.225998,US,5288
"Boulia Airport",BQL,YBOU,-22.9,139.899994,AU,542
"Bountiful Skypark Airport",BTF,KBTF,40.8694,-111.927002,US,4234
"Bourg-en-Bresse Ceyzeriat Airport",QYY,LFHS,46.202198,5.291796,FR,857
"Bourges Airport",BOU,LFLD,47.064449,2.378953,FR,529
"Bourke Airport",BRK,YBKE,-30.0392,145.951996,AU,352
"Bournemouth Airport",BOH,EGHH,50.779999,-1.8425,GB,38
"Bovanenkovo Airport",BVJ,USDB,70.315277,68.333611,RU,23
"Bowling Green Warren County Regional Airport",BWG,KBWG,36.962223,-86.422218,US,547
"Bozeman Yellowstone International Airport",BZN,KBZN,45.777458,-111.152,US,4473
"Bradford Regional Airport",BFD,KBFD,41.802223,-78.639442,US,2143
"Braga Airport",BGZ,LPBR,41.587101,-8.44514,PT,247
"Braganca Airport",BGC,LPBG,41.8578,-6.70712,PT,2241
"Brainerd Lakes Regional Airport",BRD,KBRD,46.397221,-94.137497,US,1226
"Brandon Municipal Airport",YBR,CYBR,49.91,-99.951897,CA,1343
"Branson Airport",BKG,KBBG,36.532082,-93.2005,US,1302
"Brasilia International Airport",BSB,SBBR,-15.8711,-47.918598,BR,3479
"Brasov Airport",GHV,LRBV,45.706043,25.52339,RO,1738
"Bratislava M. R. Stefanik Airport",BTS,LZIB,48.170158,17.21266,SK,436
"Bratsk Airport",BTK,UIBB,56.370548,101.698303,RU,1610
"Braunschweig Airport",BWE,EDVE,52.31916,10.55611,DE,295
"Brawley Municipal Airport",BWC,KBWC,32.992901,-115.516998,US,-128
"Brazzaville Maya Maya Airport",BZV,FCBB,-4.2517,15.25303,CG,1048
"Breda International Airport",QHS,EHSE,51.554962,4.553187,NL,28
"Brekstad Orland Airport",OLA,ENOL,63.698898,9.604003,NO,28
"Bremen Airport",BRE,EDDW,53.047501,8.786667,DE,14
"Bremerton National Airport",PWT,KPWT,47.485001,-122.763336,US,439
"Brescia Montichiari Airport",VBS,LIPO,45.428879,10.33055,IT,356
"Bresso Airport",QIB,LIMB,45.539577,9.202372,IT,474
"Brest Airport",BQT,UMBB,52.116669,23.883333,BY,469
"Brest Bretagne Airport",BES,LFRB,48.44722,-4.42166,FR,325
"Breves Airport",BVS,SNVS,-1.636789,-50.443901,BR,47
"Brevig Mission Airport",KTS,PFKT,65.331299,-166.466003,US,38
"Bria Airport",BIV,FEFR,6.527778,21.989441,CF,1975
"Bridgetown Grantley Adams International Airport",BGI,TBPB,13.0746,-59.492401,BB,169
"Brigham City Airport",BMC,KBMC,41.549168,-112.062225,US,4226
"Brighton City Shoreham Airport",ESH,EGKA,50.835548,-0.29722,GB,7
"Brindisi Airport",BDS,LIBR,40.657631,17.947029,IT,47
"Brisbane Airport",BNE,YBBN,-27.3841,153.117493,AU,13
"Bristol Airport",BRS,EGGD,51.38266,-2.71908,GB,622
"Brive Souillac Airport",BVE,LFSL,45.040031,1.487762,FR,1016
"Brno Turany Airport",BRQ,LKTB,49.15126,16.694429,CZ,778
"Brochet Airport",YBT,CYBT,57.889439,-101.678001,CA,1136
"Broken Bow Municipal Airport",BBW,KBBW,41.436436,-99.642082,US,2527
"Broken Hill Airport",BHQ,YBHI,-31.998983,141.468567,AU,958
"Bromont Airport",ZBM,CZBM,45.290798,-72.741402,CA,375
"Bronnoysund Airport",BNN,ENBN,65.461113,12.2175,NO,25
"Brookings Airport",BKX,KBKX,44.303333,-96.811111,US,1648
"Broome International Airport",BME,YBRM,-17.9447,122.231598,AU,56
"Brownsville South Padre Island International Airport",BRO,KBRO,25.90683,-97.425797,US,22
"Brownwood Regional Airport",BWD,KBWD,31.794722,-98.956665,US,1387
"Brunei International Airport",BWN,WBSB,4.9442,114.928299,BN,73
"Brunswick Golden Isles Airport",BQK,KBQK,31.258801,-81.4664,US,26
"Brunswick Malcolm McKinnon Airport",SSI,KSSI,31.15,-81.389999,US,19
"Brussels Airport",BRU,EBBR,50.901379,4.484444,BE,184
"Brussels South Charleroi Airport",CRL,EBCI,50.459999,4.452778,BE,614
"Bryan Coulter Field",CFD,KCFD,30.715691,-96.331299,US,367
"Bryansk International Airport",BZK,UUBP,53.214191,34.176441,RU,663
"Bucaramanga Palonegro International Airport",BGA,SKBG,7.126944,-73.184998,CO,3902
"Bucharest Aurel Vlaicu Airport",BBU,LRBS,44.503189,26.10211,RO,297
"Bucharest Henri Coanda International Airport",OTP,LROP,44.572159,26.102171,RO,314
"Buckland Airport",BKC,PABL,65.978889,-161.126663,US,24
"Budapest Budaors Airport",QEB,LHBS,47.450832,18.980556,HU,440
"Budapest Ferenc Liszt International Airport",BUD,LHBP,47.436932,19.25559,HU,495
"Budel Kempen Airport",QHB,EHBD,51.2561,5.601917,NL,114
"Buenaventura Gerardo Tobar Lopez Airport",BUN,SKBU,3.819592,-76.989601,CO,48
"Buenos Aires Jorge Newbery Airport",AEP,SABE,-34.559101,-58.4156,AR,18
"Buenos Aires Ministro Pistarini International Airport",EZE,SAEZ,-34.822201,-58.535801,AR,67
"Buffalo Narrows Airport",YVT,CYVT,55.841942,-108.417,CA,1444
"Buffalo Niagara International Airport",BUF,KBUF,42.940521,-78.732101,US,727
"Bugulma Airport",UUA,UWKB,54.630001,52.790001,RU,991
"Bujumbura International Airport",BJM,HBBA,-3.32401,29.31851,BI,2582
"Buka Airport",BUA,AYBK,-5.42232,154.673004,PG,11
"Bukhara International Airport",BHK,UTSB,39.775002,64.48333,UZ,751
"Bukoba Airport",BKZ,HTBU,-1.330269,31.818968,TZ,3746
"Bulawayo Joshua Mqabuko Nkomo International Airport",BUQ,FVBU,-20.017401,28.617861,ZW,4359
"Bullhead International Airport",IFP,KIFP,35.155972,-114.558998,US,701
"Bunbury Airport",BUY,YBUN,-33.378056,115.676941,AU,53
"Bundaberg Airport",BDB,YBUD,-24.898708,152.321869,AU,107
"Bunia Airport",BUX,FZKA,1.565719,30.220831,CD,4045
"Bunnell Flagler County Airport",QQF,KFIN,29.467501,-81.20639,US,33
"Buochs Airport",BXO,LSZC,46.974445,8.396944,CH,1475
"Buol Airport",UOL,WAMY,1.1027,121.414101,ID,27
"Buon Ma Thuot Airport",BMV,VVBM,12.66831,108.120201,VN,1729
"Burbank Bob Hope Airport",BUR,KBUR,34.200661,-118.358002,US,778
"Burgas Airport",BOJ,LBBG,42.56958,27.51523,BG,135
"Burgos Airport",RGS,LEBG,42.357498,-3.613611,ES,2963
"Buriram Airport",BFV,VTUO,15.2295,103.252998,TH,590
"Burley Municipal Airport",BYI,KBYI,42.542599,-113.772003,US,4150
"Burlington Alamance Regional Airport",QQY,KBUY,36.048611,-79.474998,US,616
"Burlington International Airport",BTV,KBTV,44.471859,-73.153198,US,335
"Burlington Municipal Airport",QQU,KBUU,42.691944,-88.303886,US,780
"Burlington Southeast Iowa Regional Airport",BRL,KBRL,40.78611,-91.123337,US,698
"Burlington/Mount Vernon Skagit Regional Airport",MVW,KBVS,48.472748,-122.417976,US,118
"Burnie Airport",BWT,YWYY,-40.99889,145.73111,AU,62
"Burns Lake Airport",YPZ,CYPZ,54.376427,-125.951256,CA,2350
"Burqin Kanas Airport",KJI,ZWKN,48.221111,86.998055,CN,3898
"Bursa Yenisehir Airport",YEI,LTBR,40.255001,29.5625,TR,760
"Busan Gimhae International Airport",PUS,RKPK,35.17952,128.938202,KR,6
"Bushehr Airport",BUZ,OIBB,28.944811,50.834629,IR,68
"Busselton Regional Airport",BQB,YBLN,-33.687222,115.400276,AU,55
"Busuanga Airport",USU,RPVV,12.121458,120.100029,PH,148
"Butaritari Airport",BBG,NGTU,3.086669,172.81221,KI,20
"Butler Regional Airport",BTP,KBTP,40.776901,-79.949699,US,1248
"Butte Bert Mooney Airport",BTM,KBTM,45.951111,-112.493889,US,5550
"Butuan Bancasi Airport",BXU,RPME,8.951322,125.477898,PH,141
"Bydgoszcz Ignacy Jan Paderewski Airport",BZG,EPBY,53.096802,17.977659,PL,235
"Ca Mau Airport",CAH,VVCM,9.177667,105.17778,VN,6
"Cabinda Airport",CAB,FNCA,-5.59699,12.18835,AO,66
"Cabo Frio International Airport",CFB,SBCB,-22.92,-42.07,BR,14
"Cabo San Lucas International Airport",CSL,MMSL,22.947701,-109.936996,MX,670
"Cacoal Airport",OAL,SSKW,-11.496,-61.450802,BR,778
"Cadillac Wexford County Airport",CAD,KCAD,44.276066,-85.420662,US,1303
"Caen Carpiquet Airport",CFR,LFRK,49.173279,-0.44987,FR,256
"Caernarfon Airport",QKC,EGCK,53.101665,-4.3375,GB,14
"Cagayan de Oro Laguindingan Airport",CGY,RPMY,8.6125,124.457222,PH,190
"Cagliari Elmas Airport",CAG,LIEE,39.251461,9.054283,IT,13
"Cahors Lalbenque Airport",ZAO,LFCC,44.35183,1.476396,FR,882
"Cairns Airport",CNS,YBCS,-16.885799,145.755203,AU,10
"Cairo Capital International Airport",CCE,HECP,30.07222,31.83333,EG,760
"Cairo International Airport",CAI,HECA,30.121941,31.40555,EG,382
"Cajamarca Airport",CJA,SPJB,-7.13918,-78.489403,PE,8781
"Calabar Margaret Ekpo International Airport",CBQ,DNCA,4.976019,8.347196,NG,210
"Calais Dunkerque Airport",CQF,LFAC,50.96093,1.951433,FR,10
"Calama El Loa Airport",CJC,SCCF,-22.4981,-68.903503,CL,7543
"Calbayog Airport",CYP,RPVC,12.075833,124.543053,PH,12
"Caldas Novas Airport",CLV,SBCN,-17.724722,-48.610001,BR,2247
"Caldwell Essex County Airport",CDW,KCDW,40.875004,-74.280212,US,171
"Calexico International Airport",CXL,KCXL,32.667458,-115.517677,US,1
"Calgary International Airport",YYC,CYYC,51.11388,-114.019997,CA,3557
"Cali Alfonso Bonilla Aragon International Airport",CLO,SKCL,3.543056,-76.381599,CO,3162
"Caloundra Airport",CUD,YCDR,-26.799999,153.100006,AU,12
"Calvi Sainte-Catherine Airport",CLY,LFKC,42.520359,8.793028,FR,209
"Camaguey Ignacio Agramonte International Airport",CMW,MUCM,21.42042,-77.847397,CU,413
"Camarillo Airport",QTC,KCMA,34.213715,-119.090408,US,69
"Cambridge Airport",CBG,EGSC,52.205002,0.175,GB,47
"Cambridge Bay Airport",YCB,CYCB,69.108047,-105.138,CA,90
"Cambridge Dorchester Airport",CGE,KCGE,38.539299,-76.030403,US,20
"Camden Airport",CDU,YSCN,-34.040199,150.687195,AU,230
"Camp Springs Joint Base Andrews",ADW,KADW,38.809425,-76.867081,US,262
"Campbell River Airport",YBL,CYBL,49.950829,-125.269997,CA,346
"Campbeltown Airport",CAL,EGEC,55.43,-5.68,GB,42
"Campeche International Airport",CPE,MMCP,19.81679,-90.500298,MX,34
"Campina Grande Airport",CPV,SBKG,-7.26991,-35.896301,BR,1646
"Campinas Viracopos International Airport",VCP,SBKP,-23.007299,-47.134499,BR,2170
"Campo Grande International Airport",CGR,SBCG,-20.468599,-54.672501,BR,1833
"Campo Mourao Airport",CBW,SSKM,-24.009199,-52.3568,BR,1854
"Campos dos Goytacazes Bartolomeu Lysandro Airport",CAW,SBCP,-21.698299,-41.301601,BR,57
"Can Tho International Airport",VCA,VVCT,10.08,105.709999,VN,9
"Canaima Airport",CAJ,SVCN,6.232096,-62.854851,VE,1317
"Canakkale Airport",CKZ,LTBH,40.137718,26.426769,TR,23
"Canberra International Airport",CBR,YSCB,-35.3069,149.195007,AU,1886
"Cancun International Airport",CUN,MMUN,21.03652,-86.876999,MX,20
"Canela Airport",CEL,SSCN,-29.370556,-50.832222,BR,2746
"Cangyuan Washan Airport",CWJ,ZPCW,23.273478,99.369987,CN,-1
"Cannes Mandelieu Airport",CEQ,LFMD,43.546379,6.954167,FR,13
"Canouan Airport",CIW,TVSC,12.69904,-61.3424,VC,11
"Canton Cherokee County Regional Airport",QQC,KCNI,34.310555,-84.423889,US,1219
"Cap Skirring Airport",CSK,GOGS,12.394692,-16.747387,SN,66
"Cap-Haitien International Airport",CAP,MTCH,19.732981,-72.194702,HT,10
"Cape Dorset Airport",YTE,CYTE,64.230003,-76.526604,CA,164
"Cape Girardeau Regional Airport",CGI,KCGI,37.225311,-89.570702,US,341
"Cape May County",WWD,KWWD,39.008499,-74.908203,US,21
"Cape Town International Airport",CPT,FACT,-33.964802,18.60166,ZA,151
"Caracas Simon Bolivar International Airport",CCS,SVMI,10.60311,-66.990501,VE,235
"Carajas Airport",CKS,SBCJ,-6.114749,-50.001945,BR,2037
"Caransebes Airport",CSB,LRCS,45.42004,22.252792,RO,828
"Carauari Airport",CAF,SWCA,-4.87152,-66.897499,BR,355
"Carbondale Murphysboro Southern Illinois Airport",MDH,KMDH,37.778099,-89.251999,US,411
"Carcassonne Airport",CCF,LFMK,43.215809,2.308544,FR,433
"Cardiff Airport",CWL,EGFF,51.396469,-3.33753,GB,220
"Carlisle Lake District Airport",CAX,EGNC,54.9375,-2.80916,GB,190
"Carlsbad Cavern City Air Terminal Airport",CNM,KCNM,32.337471,-104.263,US,3295
"Carnarvon Airport",CVQ,YCAR,-24.880501,113.672203,AU,13
"Carosue Dam Airport",WCD,YSCD,-30.1737,122.322098,AU,1306
"Carrizo Springs Dimmit County Airport",CZT,KCZT,28.52236,-99.823753,US,590
"Carson Airport",CSN,KCXP,39.1922,-119.734001,US,4697
"Cartagena Rafael Nunez International Airport",CTG,SKCG,10.4425,-75.512703,CO,4
"Cartersville Airport",QQV,KVPC,34.123055,-84.84861,US,759
"Cartwright Airport",YRF,CYCA,53.682999,-57.033001,CA,40
"Caruaru Airport",CAU,SNRU,-8.28239,-36.0135,BR,1891
"Casa Grande Municipal Airport",CGZ,KCGZ,32.955158,-111.766068,US,1464
"Casablanca Mohammed V International Airport",CMN,GMMN,33.367458,-7.58996,MA,656
"Cascais Municipal Aerodrome",CAT,LPCS,38.725555,-9.355278,PT,325
"Cascavel Adalberto Mendes da Silva Airport",CAC,SBCA,-25.000299,-53.500702,BR,2473
"Casper Natrona County International Airport",CPR,KCPR,42.908001,-106.463997,US,5350
"Castaway Island Airport",CST,NFCS,-17.733299,177.126907,FJ,-1
"Castellon Costa Azahar Airport",CDT,LECH,40.209721,0.069722,ES,1145
"Castlegar West Kootenay Regional Airport",YCG,CYCG,49.296379,-117.632004,CA,1624
"Castres Mazamet Airport",DCM,LFCK,43.554958,2.290592,FR,787
"Castries George F. L. Charles Airport",SLU,TLPC,14.02022,-60.992901,LC,22
"Castro Mocopulli Airport",MHC,SCPQ,-42.346111,-73.71389,CL,597
"Cat Cays Airport",CXY,MYCC,25.554428,-79.275352,BS,10
"Cat Lake Airport",YAC,CYAC,51.716667,-91.816666,CA,1343
"Catamarca International Airport",CTC,SANC,-28.593201,-65.7509,AR,1522
"Catania Fontanarossa Airport",CTA,LICC,37.466782,15.0664,IT,39
"Catarman National Airport",CRM,RPVF,12.483333,124.583336,PH,6
"Caticlan Boracay Airport",MPH,RPVE,11.92,121.949997,PH,16
"Catumbela Airport",CBT,FNCT,-12.4791,13.48694,AO,98
"Cauayan Airport",CYZ,RPUY,16.93,121.753059,PH,200
"Caucasia Juan H. White Airport",CAQ,SKCU,7.96847,-75.198502,CO,174
"Caxias do Sul Airport",CXJ,SBCX,-29.197001,-51.1875,BR,2472
"Caye Caulker Airport",CUK,MZCK,17.735001,-88.029442,BZ,3
"Cayenne Felix Eboue Airport",CAY,SOCA,4.819722,-52.3619,GF,26
"Cayman Brac Charles Kirkconnell International Airport",CYB,MWCB,19.686979,-79.882698,KY,8
"Cayo Coco Jardines del Rey Airport",CCC,MUCC,22.461111,-78.328613,CU,6
"Cayo Largo del Sur Vilo Acuna Airport",CYO,MUCL,21.616449,-81.545898,CU,10
"Cebu Mactan International Airport",CEB,RPVM,10.30754,123.979401,PH,31
"Cedar City Regional Airport",CDC,KCDC,37.700958,-113.098,US,5622
"Cedar Key George T. Lewis Airport",CDK,KCDK,29.134064,-83.050781,US,7
"Cedar Rapids Eastern Iowa Airport",CID,KCID,41.884682,-91.710701,US,869
"Ceduna Airport",CED,YCDU,-32.130554,133.709717,AU,77
"Ceiba Jose Aponte de la Torre Airport",NRR,TJRV,18.250284,-65.63575,PR,25
"Celle Air Base",QCC,ETHC,52.59111,10.022222,DE,32
"Ceske Budejovice Airport",JCL,LKCS,48.946388,14.428056,CZ,1417
"Cessnock Airport",CES,YCNK,-32.787498,151.341995,AU,211
"Ceuta Heliport",JCU,GECE,35.892799,-5.30639,ES,8
"Chabahar Konarak Airport",ZBR,OIZC,25.44335,60.382111,IR,43
"Chachapoyas Airport",CHH,SPPY,-6.2018,-77.856003,PE,8333
"Chadron Municipal Airport",CDR,KCDR,42.834999,-103.097778,US,3297
"Chaghcharan Airport",CCN,OACC,34.526661,65.27166,AF,7383
"Chalkyitsik Airport",CIK,PACI,66.644997,-143.740005,US,544
"Chambery Airport",CMF,LFLB,45.639069,5.880086,FR,774
"Champaign University of Illinois Willard Airport",CMI,KCMI,40.039665,-88.269051,US,754
"Chandigarh Airport",IXC,VICG,30.67346,76.788544,IN,1012
"Changchun Longjia International Airport",CGQ,ZYCC,43.996208,125.685303,CN,706
"Changde Taohuayuan Airport",CGD,ZGCD,28.91888,111.640198,CN,8366
"Changsha Huanghua International Airport",CSX,ZGHA,28.191599,113.223534,CN,198
"Changuinola International Airport",CHX,MPCH,9.458636,-82.5168,PA,19
"Changzhi Wangcun Airport",CIH,ZBCZ,36.247501,113.125801,CN,164
"Changzhou Benniu Airport",CZX,ZSCG,31.91972,119.778603,CN,197
"Chania International Airport",CHQ,LGSA,35.531738,24.14967,GR,490
"Chaoyang Airport",CHG,ZYCY,41.538101,120.434998,CN,568
"Chapeco Airport",XAP,SBCH,-27.134199,-52.656502,BR,2146
"Charleston Executive Airport",JZI,KJZI,32.700001,-80.0,US,18
"Charleston International Airport",CHS,KCHS,32.898628,-80.040497,US,46
"Charleston West Virginia International Yeager Airport",CRW,KCRW,38.373508,-81.596146,US,941
"Charleville Airport",CTL,YBCV,-26.4133,146.262497,AU,1003
"Charlevoix Municipal Airport",QTX,KCVX,45.304722,-85.275276,US,669
"Charlevoix Municipal Airport",QTM,KCVX,45.304722,-85.275276,US,669
"Charlo Airport",YCL,CYCL,47.990829,-66.3302,CA,132
"Charlotte Douglas International Airport",CLT,KCLT,35.214001,-80.9431,US,748
"Charlottesville Albemarle Airport",CHO,KCHO,38.138638,-78.452858,US,639
"Charlottetown Airport",YYG,CYYG,46.290001,-63.121101,CA,160
"Charlottetown Airport",YHG,CCH4,52.765457,-56.118263,CA,137
"Chateauroux Centre Marcel Dassault Airport",CHR,LFLX,46.860271,1.721111,FR,529
"Chatham Island Tuuta Airport",CHT,NZCI,-43.812897,-176.469711,NZ,43
"Chatham-Kent Airport Airport",XCM,CYCK,42.306335,-82.081604,CA,643
"Chattanooga Metropolitan Airport",CHA,KCHA,35.035191,-85.203499,US,682
"Chaves Airport",CHV,LPCH,41.722324,-7.46315,PT,1181
"Cheboksary Airport",CSY,UWKS,56.09,47.34,RU,560
"Chefornak Airport",CYF,PACK,60.216667,-164.199997,US,40
"Chehalis Centralia Airport",CLS,KCLS,46.676998,-122.983002,US,176
"Chelyabinsk Airport",CEK,USCC,55.305828,61.50333,RU,769
"Chengde Puning Airport",CDE,ZBCD,41.122501,118.073891,CN,2221
"Chengdu Shuangliu International Airport",CTU,ZUUU,30.57852,103.946999,CN,1625
"Chengdu Tianfu International Airport",TFU,ZUTF,30.319,104.445,CN,1444
"Chennai International Airport",MAA,VOMM,12.99441,80.180511,IN,52
"Chenzhou Beihu Airport",HCZ,ZGCZ,25.753263,112.845192,CN,1080
"Cheongju International Airport",CJJ,RKTU,36.716599,127.4991,KR,191
"Cherbourg Maupertus Airport",CER,LFRC,49.650829,-1.47527,FR,459
"Cherepovets Airport",CEE,ULWC,59.276669,38.028332,RU,377
"Chernivtsi International Airport",CWC,UKLN,48.259319,25.980829,UA,826
"Chesapeake Regional Airport",QQP,KCPK,36.665558,-76.320557,US,19
"Chester Hawarden Airport",CEG,EGNR,53.178051,-2.97777,GB,45
"Chetumal International Airport",CTM,MMCM,18.50466,-88.326797,MX,39
"Chetwynd Airport",YCQ,CYCQ,55.687344,-121.625969,CA,2007
"Chevak Airport",VAK,PAVA,61.540901,-165.600494,US,75
"Chevery Airport",YHR,CYHR,50.468933,-59.636696,CA,19
"Cheyenne Regional Airport",CYS,KCYS,41.155628,-104.809998,US,6159
"Chiang Mai International Airport",CNX,VTCC,18.76684,98.962639,TH,1036
"Chiang Rai International Airport",CEI,VTCT,19.952339,99.882919,TH,1280
"Chiayi Airport",CYI,RCKU,23.461769,120.392799,TW,85
"Chibougamau Chapais Airport",YMT,CYMT,49.771938,-74.528,CA,1270
"Chicago Aurora Municipal Airport",AUZ,KARR,41.7719,-88.4757,US,712
"Chicago DuPage Airport",DPA,KDPA,41.90694,-88.248199,US,759
"Chicago Executive Airport",PWK,KPWK,42.114166,-87.901665,US,647
"Chicago Gary International",GYY,KGYY,41.610001,-87.410004,US,591
"Chicago Lansing Municipal Airport",QQI,KIGQ,41.535,-87.529442,US,620
"Chicago Midway International Airport",MDW,KMDW,41.785969,-87.752403,US,619
"Chicago O'Hare International Airport",ORD,KORD,41.978142,-87.9058,US,672
"Chicago Rockford International Airport",RFD,KRFD,42.195278,-89.097221,US,742
"Chicago Waukegan National Airport",UGN,KUGN,42.422161,-87.867897,US,727
"Chichester Goodwood Airport",QUG,EGHR,50.859402,-0.759167,GB,98
"Chiclayo International Airport",CIX,SPHI,-6.78747,-79.828003,PE,97
"Chico Municipal Airport",CIC,KCIC,39.79538,-121.858002,US,240
"Chifeng Yulong Airport",CIF,ZBCF,42.154861,118.834618,CN,2018
"Chihuahua International Airport",CUU,MMCU,28.702869,-105.963997,MX,4462
"Childress Municipal Airport",CDS,KCDS,34.433781,-100.287003,US,1954
"Chilliwack Airport",YCW,CYCW,49.152771,-121.938004,CA,32
"Chimoio Airport",VPY,FQCH,-19.133333,33.483334,MZ,2287
"Chimore Airport",CCA,SLCH,-16.98975,-65.141502,BO,796
"Chinchilla Airport",CCL,YCCA,-26.775,150.617004,AU,1028
"Chino Airport",CNO,KCNO,33.974701,-117.637001,US,650
"Chios Island National Airport",JKH,LGHI,38.34317,26.14057,GR,15
"Chisinau International Airport",KIV,LUKK,46.927738,28.930969,MD,399
"Chita Kadala Airport",HTA,UIAA,52.02631,113.305496,RU,2272
"Chitral Airport",CJL,OPCH,35.886112,71.794441,PK,4900
"Chitre Alonso Valderrama Airport",CTD,MPCE,7.98784,-80.409698,PA,33
"Chittagong Shah Amanat International Airport",CGP,VGEG,22.249611,91.813278,BD,12
"Chizhou Jiuhuashan Airport",JUH,ZSJH,30.740278,117.686668,CN,65
"Chlef International Airport",CFK,DAOI,36.212223,1.331667,DZ,469
"Chokurdakh Airport",CKH,UESO,70.6231,147.901993,RU,151
"Cholet Le Pontreau Airport",CET,LFOU,47.081902,-0.87721,FR,443
"Chongqing Jiangbei International Airport",CKG,ZUCK,29.71921,106.641602,CN,1365
"Christchurch International Airport",CHC,NZCH,-43.489399,172.534393,NZ,123
"Christmas Creek Mine Airport",CKW,YCHK,-22.355556,119.652222,AU,1454
"Christmas Island Airport",XCH,YPXM,-10.450556,105.690277,CX,916
"Chu Lai International Airport",VCL,VVCA,15.4033,108.706001,VN,10
"Chuathbaluk Airport",CHU,PACH,61.583435,-159.238815,US,243
"Chub Cay International Airport",CCZ,MYBC,25.417101,-77.880798,BS,5
"Chulman Airport",NER,UELL,56.913334,124.911667,RU,2812
"Chumphon Airport",CJM,VTSE,10.71,99.360001,TH,18
"Churchill Airport",YYQ,CYYQ,58.739159,-94.065002,CA,94
"Churchill Falls Airport",ZUM,CZUM,53.562778,-64.109169,CA,1442
"Chuuk International Airport",TKK,PTKK,7.461893,151.843002,FM,10
"Cianorte Airport",GGH,SSCT,-23.691668,-52.642223,BR,1837
"Cienfuegos Jaime Gonzalez Airport",CFG,MUCF,22.15,-80.414101,CU,102
"Cincinnati Municipal Lunken Airport",LUK,KLUK,39.103329,-84.418602,US,483
"Cincinnati Northern Kentucky International Airport",CVG,KCVG,39.048828,-84.667801,US,896
"City of Derry Airport",LDY,EGAE,55.04277,-7.16111,GB,22
"Ciudad Bolivar Tomas de Heres Airport",CBL,SVCB,8.121898,-63.5373,VE,197
"Ciudad Constitucion Airport",CUA,MMDA,25.053801,-111.614998,MX,213
"Ciudad del Carmen International Airport",CME,MMCE,18.65373,-91.799004,MX,10
"Ciudad del Este Guarani International Airport",AGT,SGES,-25.455278,-54.843334,PY,846
"Ciudad Juarez International Airport",CJS,MMCS,31.636129,-106.428001,MX,3904
"Ciudad Obregon International Airport",CEN,MMCN,27.39263,-109.833,MX,205
"Ciudad Real Central Airport",CQM,LERL,38.85638,-3.97,ES,2119
"Ciudad Victoria International Airport",CVM,MMCV,23.703329,-98.956398,MX,761
"Claris Great Barrier Aerodrome",GBZ,NZGB,-36.241402,175.472,NZ,20
"Clarks Point Airport",CLP,PFCL,58.833698,-158.529007,US,80
"Clarksburg North Central West Virginia Airport",CKB,KCKB,39.295555,-80.229446,US,1217
"Clarksdale Fletcher Field Airport",CKM,KCKM,34.299702,-90.512299,US,173
"Clarksville Montgomery County Regional Airport",CKV,KCKV,36.621899,-87.415001,US,550
"Clemson Oconee County Regional Airport",CEU,KCEU,34.671902,-82.886497,US,892
"Clermont-Ferrand Auvergne Airport",CFE,LFLC,45.785831,3.1625,FR,1090
"Cleveland Burke Lakefront Airport",BKL,KBKL,41.516945,-81.683334,US,583
"Cleveland Cuyahoga County Airport",CGF,KCGF,41.565182,-81.488052,US,862
"Cleveland Hopkins International Airport",CLE,KCLE,41.410252,-81.853897,US,799
"Cleveland Municipal Airport",QTN,KRNV,33.761425,-90.757881,US,136
"Cloncurry Airport",CNJ,YCCY,-20.668905,140.508514,AU,616
"Cloudbreak Fortescue Dave Forrest Airport",KFE,YFDF,-22.292,119.437225,AU,1555
"Clovis Municipal Airport",CVN,KCVN,34.427223,-103.078888,US,4216
"Cluj-Napoca International Airport",CLJ,LRCL,46.785091,23.68611,RO,1035
"Clyde River Airport",YCY,CYCY,70.486107,-68.516602,CA,87
"Coari Airport",CIZ,SWKO,-4.1341,-63.134789,BR,137
"Coatesville Chester County Area Airport",CTH,KMQS,39.979,-75.865501,US,660
"Cobar Airport",CAZ,YCBA,-31.530001,145.789993,AU,724
"Cobija Capitan Anibal Arab Airport",CIJ,SLCO,-11.0404,-68.782898,BO,892
"Cochabamba Jorge Wilstermann International Airport",CBB,SLCB,-17.421,-66.177101,BO,8360
"Cochin International Airport",COK,VOCI,10.15199,76.401901,IN,30
"Coconut Island Airport",CNC,YCCT,-10.05,143.070007,AU,3
"Cocos Islands Airport",CCK,YPCC,-12.188611,96.830559,CC,10
"Cody Yellowstone Regional Airport",COD,KCOD,44.52,-109.019997,US,5102
"Coen Airport",CUQ,YCOE,-13.763889,143.113327,AU,532
"Coeur d'Alene Airport",COE,KCOE,47.773605,-116.824165,US,2295
"Coffs Harbour Airport",CFS,YCFS,-30.320499,153.116302,AU,18
"Cognac Chateaubernard Air Base",CNG,LFBG,45.657669,-0.314753,FR,70
"Coimbatore International Airport",CJB,VOCB,11.03003,77.043381,IN,1324
"Coimbra Airport",CBP,LPCO,40.1572,-8.47,PT,587
"Colby Municipal Airport",CBK,KCBK,39.42614,-101.050301,US,3170
"Cold Bay Airport",CDB,PACD,55.206059,-162.725006,US,102
"Coldfoot Airport",CXF,PACX,67.252197,-150.203995,US,1042
"Colima Airport",CLQ,MMIA,19.27701,-103.577003,MX,2467
"Coll Airport",COL,EGEL,56.601898,-6.61778,GB,21
"Collarenebri Airport",CRB,YCBR,-29.5217,148.582001,AU,152
"College Park Airport",CGS,KCGS,38.980598,-76.922302,US,48
"College Station Easterwood Airport",CLL,KCLL,30.588579,-96.3638,US,320
"Collins Bay Airport",YKC,CYKC,58.236099,-103.678001,CA,1341
"Colmar Houssen Airport",CMR,LFGA,48.110352,7.359147,FR,630
"Cologne Bonn Airport",CGN,EDDK,50.866001,7.143,DE,302
"Colombo Bandaranaike International Airport",CMB,VCBI,7.181139,79.883789,LK,32
"Colombo Ratmalana Airport",RML,VCCC,6.821994,79.8862,LK,16
"Colon Enrique Adolfo Jimenez Airport",ONX,MPEJ,9.356639,-79.867401,PA,25
"Colonsay Airport",CSA,EGEY,56.057499,-6.24306,GB,44
"Colorado Springs Airport",COS,KCOS,38.805801,-104.699997,US,6187
"Colorado Springs Meadow Lake Airport",QTL,KFLY,38.94595,-104.571159,US,6824
"Columbia Jim Hamilton Owens Airport",CUB,KCUB,33.970501,-80.995201,US,193
"Columbia Maury County Airport",MRC,KMRC,35.553375,-87.177437,US,676
"Columbia Metropolitan Airport",CAE,KCAE,33.938831,-81.119499,US,236
"Columbia Regional Airport",COU,KCOU,38.818089,-92.219597,US,889
"Columbus John Glenn International Airport",CMH,KCMH,39.997971,-82.8918,US,814
"Columbus Lowndes County Airport",UBS,KUBS,33.46452,-88.380753,US,185
"Columbus Metropolitan Airport",CSG,KCSG,32.516331,-84.938797,US,397
"Columbus Municipal Airport",CLU,KBAK,39.261902,-85.896301,US,656
"Columbus Municipal Airport",OLU,KOLU,41.447224,-97.341667,US,1444
"Columbus Ohio State University Airport",OSU,KOSU,40.079723,-83.073059,US,906
"Columbus Rickenbacker International Airport",LCK,KLCK,39.813782,-82.927803,US,744
"Comayagua Palmerola International Airport",XPL,MHPR,14.3824,-87.621201,HN,2061
"Comiso Airport",CIY,LICB,36.990002,14.6,IT,620
"Comodoro Rivadavia International Airport",CRD,SAVC,-45.785301,-67.4655,AR,190
"Comox Valley Airport",YQQ,CYQQ,49.710831,-124.886002,CA,84
"Compton Woodley Airport",CPM,KCPM,33.889999,-118.244003,US,97
"Con Dao Airport",VCS,VVCS,8.7325,106.628891,VN,20
"Conakry International Airport",CKY,GUCY,9.576889,-13.6119,GN,72
"Concepcion Carriel Sur International Airport",CCP,SCIE,-36.772598,-73.063103,CL,26
"Concord Buchanan Field Airport",CCR,KCCR,37.988888,-122.055557,US,23
"Concord Municipal Airport",CON,KCON,43.202702,-71.502296,US,342
"Concord Regional Airport",USA,KJQF,35.385139,-80.711189,US,662
"Confresa Airport",CFO,SJHG,-10.6344,-51.563599,BR,781
"Congo Town South Andros Airport",TZN,MYAK,24.158367,-77.588799,BS,41
"Conroe Lone Star Executive Airport",CXO,KCXO,30.35236,-95.414497,US,245
"Constanta International Airport",CND,LRCK,44.362221,28.488331,RO,353
"Constantine Mohamed Boudiaf International Airport",CZL,DABC,36.27602,6.620386,DZ,2316
"Coober Pedy Airport",CPD,YCBP,-29.039942,134.720154,AU,738
"Cooktown Airport",CTN,YCKN,-15.443333,145.183334,AU,26
"Cooma Snowy Mountains Airport",OOM,YCOM,-36.299999,148.970001,AU,3088
"Coondewanna Airport",CJF,YCWA,-22.965,118.809998,AU,2327
"Copenhagen Airport",CPH,EKCH,55.616959,12.645637,DK,17
"Copenhagen Sea Airport",QEC,EKCC,55.691055,12.600377,DK,1
"Copiapo Desierto de Atacama Airport",CPO,SCAT,-27.261248,-70.779221,CL,670
"Coral Harbour Airport",YZS,CYZS,64.193329,-83.359398,CA,210
"Cordoba Airport",ODB,LEBA,37.841999,-4.84887,ES,297
"Cordoba International Airport",COR,SACO,-31.323601,-64.207901,AR,1604
"Cordova Mudhole Smith Airport",CDV,PACV,60.491772,-145.477005,US,54
"Corfu International Airport",CFU,LGKR,39.60194,19.911659,GR,6
"Cork Airport",ORK,EICK,51.841381,-8.49111,IE,502
"Cornelio Procopio Airport",CKO,SSCP,-23.1525,-50.602501,BR,1854
"Coro Jose Leonardo Chirinos Airport",CZE,SVCR,11.41486,-69.681602,VE,52
"Corowa Airport",CWW,YCOR,-35.994701,146.356995,AU,469
"Corozal Airport",CZH,MZCZ,18.382221,-88.410835,BZ,39
"Corozal Las Brujas Airport",CZU,SKCZ,9.333333,-75.283302,CO,528
"Corpus Christi International Airport",CRP,KCRP,27.770361,-97.501198,US,44
"Correia Pinto Planalto Serrano Regional Airport",EEA,SNCP,-27.634167,-50.358334,BR,2887
"Corrientes International Airport",CNQ,SARC,-27.445499,-58.761799,AR,203
"Corsicana Municipal Airport",CRS,KCRS,32.027225,-96.39785,US,442
"Cortez Municipal Airport",CEZ,KCEZ,37.302776,-108.62722,US,5918
"Corumba International Airport",CMG,SBCR,-19.0119,-57.673,BR,461
"Corvallis Municipal Airport",CVO,KCVO,44.501186,-123.285698,US,243
"Corvo Airport",CVU,LPCR,39.671379,-31.1166,PT,98
"Cotabato Awang Airport",CBO,RPWC,7.165242,124.209602,PH,189
"Cotonou Cadjehoun Airport",COO,DBBB,6.357228,2.384353,BJ,19
"Cotulla La Salle County Airport",COT,KCOT,28.45669,-99.2183,US,474
"Council Bluffs Municipal Airport",CBF,KCBF,41.259201,-95.760597,US,1253
"Courchevel Altiport",CVF,LFLJ,45.39666,6.633611,FR,6580
"Coventry Airport",CVT,EGBE,52.36972,-1.47972,GB,267
"Cox's Bazar Airport",CXB,VGCB,21.45219,91.963882,BD,12
"Cozumel International Airport",CZM,MMCZ,20.5224,-86.925598,MX,15
"Craig Moffat Airport",CIG,KCAG,40.495201,-107.522003,US,6193
"Craiova International Airport",CRA,LRCV,44.31813,23.888611,RO,626
"Cranbrook Canadian Rockies International Airport",YXC,CYXC,49.612221,-115.780998,CA,3084
"Cranfield Airport",QKT,EGTC,52.072224,-0.616667,GB,358
"Crawfordsville Regional Airport",QTJ,KCFJ,39.974781,-86.92086,US,794
"Creil Air Base",CSF,LFPC,49.253609,2.519167,FR,291
"Crescent City Del Norte County Airport",CEC,KCEC,41.779999,-124.235832,US,57
"Crestview Bob Sikes Airport",CEW,KCEW,30.77883,-86.522102,US,213
"Criciuma Diomicio Freitas Airport",CCM,SBCM,-28.725834,-49.424721,BR,93
"Crooked Island Colonel Hill Airport",CRI,MYCI,22.75,-74.150002,BS,5
"Crookston Municipal Airport",CKN,KCKN,47.841702,-96.621597,US,899
"Cross City Airport",CTY,KCTY,29.6355,-83.104797,US,42
"Cross Lake Airport",YCR,CYCR,54.61306,-97.751442,CA,685
"Crossville Memorial Whitson Field Airport",CSV,KCSV,35.951302,-85.084999,US,1881
"Crotone Airport",CRV,LIBC,38.997219,17.08016,IT,521
"Cruzeiro do Sul International Airport",CZS,SBCZ,-7.5999,-72.769402,BR,637
"Cucuta Camilo Daza International Airport",CUC,SKCC,7.931389,-72.514099,CO,1098
"Cuenca Mariscal Lamar International Airport",CUE,SECU,-2.88946,-78.984299,EC,8306
"Cuernavaca General Mariano Matamoros Airport",CVJ,MMCB,18.834761,-99.261299,MX,4277
"Cuiaba Marechal Rondon International Airport",CGB,SBCY,-15.6529,-56.116699,BR,617
"Culiacan International Airport",CUL,MMCL,24.76454,-107.473999,MX,108
"Cumana Antonio Jose de Sucre Airport",CUM,SVCU,10.45033,-64.130402,VE,25
"Cuneo Levaldigi Airport",CUF,LIMZ,44.547009,7.623217,IT,1267
"Cunnamulla Airport",CMA,YCMU,-28.031389,145.616104,AU,630
"Curitiba Afonso Pena International Airport",CWB,SBCT,-25.5284,-49.175701,BR,2988
"Curitiba Bacacheri Airport",BFH,SBBI,-25.4025,-49.233891,BR,-1
"Curtin Airport",DCN,YCIN,-17.580511,123.828598,AU,285
"Cusco Alejandro Velasco Astete International Airport",CUZ,SPZO,-13.5357,-71.938698,PE,10860
"Cut Bank Municipal Airport",CTB,KCTB,48.608349,-112.375999,US,3857
"Cuxhaven Nordholz Airport",FCN,ETMN,53.7677,8.6585,DE,74
"Cuyo Airport",CYU,RPLO,10.8581,121.069,PH,13
"Czestochowa Rudniki Airport",CZW,EPRU,50.884998,19.2047,PL,860
"Da Lat Lien Khuong Airport",DLI,VVDL,11.75056,108.373611,VN,3156
"Da Nang International Airport",DAD,VVDN,16.043909,108.199303,VN,33
"Daegu International Airport",TAE,RKTN,35.8941,128.658798,KR,116
"Dakar Blaise Diagne International Airport",DSS,GOBD,14.671111,-17.066944,SN,290
"Dakar International Airport",DKR,GOOY,14.7397,-17.4902,SN,85
"Dakhla Airport",VIL,GMMH,23.713333,-15.935,EH,36
"Dalaman Airport",DLM,LTBS,36.713051,28.7925,TR,20
"Dalby Airport",DBY,YDAY,-27.1553,151.266998,AU,1137
"Dalhart Municipal Airport",DHT,KDHT,36.022579,-102.546997,US,3991
"Dali Airport",DLU,ZPDL,25.649401,100.319,CN,7074
"Dalian Zhoushuizi International Airport",DLC,ZYTL,38.96566,121.538597,CN,107
"Dallas Addison Airport",ADS,KADS,32.959999,-96.830002,US,644
"Dallas Executive Airport",RBD,KRBD,32.680832,-96.868332,US,660
"Dallas Fort Worth International Airport",DFW,KDFW,32.89682,-97.037903,US,607
"Dallas Love Field Airport",DAL,KDAL,32.847111,-96.8517,US,487
"Dalton Municipal Airport",DNN,KDNN,34.723057,-84.870277,US,710
"Damascus International Airport",DAM,OSDI,33.410629,36.514259,SY,2020
"Dammam King Fahd International Airport",DMM,OEDF,26.471161,49.79789,SA,72
"Damme Airport",QED,EDWC,52.487595,8.185209,DE,148
"Danbury Municipal Airport",DXR,KDXR,41.371666,-73.482224,US,458
"Dandong Langtou Airport",DDG,ZYDD,40.025551,124.286598,CN,154
"Dangriga Airport",DGA,MZPB,16.982389,-88.231003,BZ,155
"Danville Regional Airport",DAN,KDAN,36.572899,-79.336098,US,571
"Danville Vermilion Regional Airport",DNV,KDNV,40.197224,-87.596947,US,696
"Daocheng Yading Airport",DCY,ZUDC,29.323055,100.053329,CN,14418
"Daqing Sartu Airport",DQA,ZYDQ,46.748684,125.139725,CN,499
"Dar-es-Salaam Julius Nyerere International Airport",DAR,HTDA,-6.87811,39.202621,TZ,182
"Darbhanga Airport",DBR,VE89,26.194721,85.917503,IN,171
"Darnley Island Airport",NLF,YDNI,-9.58333,143.766998,AU,-1
"Daru Airport",DAU,AYDU,-9.08676,143.207993,PG,20
"Darwin International Airport",DRW,YPDN,-12.4147,130.876663,AU,103
"Dasoguz Airport",TAZ,UTAT,41.761101,59.826698,TM,272
"Datong Yungang Airport",DAT,ZBDT,40.055538,113.481361,CN,3442
"Davao City Francisco Bangoy International Airport",DVO,RPMD,7.125522,125.645699,PH,96
"Davenport Municipal Airport",DVN,KDVN,41.610298,-90.588303,US,751
"David Enrique Malek International Airport",DAV,MPDA,8.391003,-82.434898,PA,89
"Davis Plateau Skiway",QAD,AT07,-68.469635,78.790894,??,1528
"Dawadmi Domestic Airport",DWD,OEDW,24.445545,44.1287,SA,3249
"Dawei Airport",TVY,VYDW,14.1,98.199997,MM,84
"Dawson City Airport",YDA,CYDA,64.043053,-139.127625,CA,1109
"Dawson Community Airport",GDV,KGDV,47.13871,-104.806999,US,2458
"Dawson Creek Airport",YDQ,CYDQ,55.742329,-120.182999,CA,2148
"Dayong Zhangjiajie Hehua Airport",DYG,ZGDY,29.107121,110.445686,CN,692
"Dayrestan Qeshm Island Airport",GSM,OIKQ,26.757778,55.905277,IR,27
"Dayton International Airport",DAY,KDAY,39.90237,-84.219299,US,1009
"Dayton Wright Brothers Airport",MGY,KMGY,39.58889,-84.224998,US,957
"Daytona Beach International Airport",DAB,KDAB,29.185192,-81.060829,US,34
"Dazhou Jinya Airport",DZH,ZUDA,31.047243,107.435455,CN,1473
"Deadhorse Airport",SCC,PASC,70.194748,-148.464996,US,67
"Deadman's Cay Airport",LGI,MYLD,23.17901,-75.093498,BS,9
"Dease Lake Airport",YDL,CYDL,58.422218,-130.031998,CA,2600
"Deauville Saint Gatien Airport",DOL,LFRG,49.363331,0.16,FR,479
"Deblin Airport",QPD,EPDE,51.551472,21.891415,PL,380
"Debrecen International Airport",DEB,LHDC,47.488911,21.61533,HU,359
"Decatur Airport",DEC,KDEC,39.830002,-88.860001,US,682
"Decatur Municipal Airport",QTU,KLUD,33.254257,-97.580498,US,1046
"Decatur Pryor Field Regional Airport",DCU,KDCU,34.652699,-86.945396,US,592
"Deer Lake Airport",YVZ,CYVZ,52.666668,-94.5,CA,1100
"Deer Lake Regional Airport",YDF,CYDF,49.210831,-57.3913,CA,72
"Deering Airport",DRG,PADE,66.071198,-162.759888,US,15
"Dehradun Jolly Grant Airport",DED,VIDN,30.18968,78.180252,IN,1831
"Dekai Nop Goliat Airport",DEX,WAVD,-4.853996,139.485672,ID,180
"Del Carmin Sayak Airport",IAO,RPNS,9.858889,126.013885,PH,10
"Del Rio International Airport",DRT,KDRT,29.374201,-100.927002,US,1002
"Delhi Hindon Airport",QAH,VIDX,28.707708,77.359734,IN,701
"Delhi Indira Gandhi International Airport",DEL,VIDP,28.5665,77.103081,IN,777
"Deline Airport",YWJ,CYWJ,65.211006,-123.434807,CA,697
"Delingha Airport",HXD,ZLDL,37.125,97.268608,CN,9383
"Delma Island Airport",ZDY,OMDL,24.508333,52.335278,AE,19
"Deming Municipal Airport",DMN,KDMN,32.262989,-107.721733,US,4311
"Den Helder Airport",DHR,EHKD,52.923351,4.780625,NL,3
"Denham Airport",QKD,EGLD,51.588451,-0.512884,GB,245
"Denizli Cardak Airport",DNZ,LTAY,37.785561,29.70129,TR,2795
"Denpasar Ngurah Rai International Airport",DPS,WADD,-8.74816,115.167099,ID,14
"Denton Enterprise Airport",QQD,KDTO,33.200832,-97.198059,US,642
"Denver Centennial Airport",APA,KAPA,39.57011,-104.848999,US,5885
"Denver Front Range Airport",QQH,KFTG,39.785278,-104.543053,US,5512
"Denver International Airport",DEN,KDEN,39.858784,-104.673882,US,5433
"Denver Rocky Mountain Metropolitan Airport",BJC,KBJC,39.900002,-105.110001,US,5673
"Deoghar Airport",DGH,VEDO,24.446871,86.706619,IN,797
"Deputatskiy Airport",DPT,UEBD,69.392555,139.89537,RU,926
"Dera Ghazi Khan Airport",DEA,OPDG,29.961,70.485901,PK,492
"Derby Airport",DRB,YDBY,-17.370001,123.661003,AU,24
"Des Moines International Airport",DSM,KDSM,41.53397,-93.663002,US,958
"Dessie Kombolcha Airport",DSE,HADC,11.111111,39.724998,ET,6117
"Destin Fort Walton Beach Airport",DSI,KDTS,30.399591,-86.470879,US,18
"Destin Fort Walton Beach International Airport",VPS,KVPS,30.48333,-86.525299,US,87
"Detroit Coleman A. Young International Airport",DET,KDET,42.409191,-83.009804,US,626
"Detroit Lakes Airport",DTL,KDTL,46.826389,-95.886108,US,1396
"Detroit Metropolitan Wayne County Airport",DTW,KDTW,42.21244,-83.353302,US,645
"Detroit Willow Run Airport",YIP,KYIP,42.23772,-83.529999,US,716
"Devils Lake Regional Airport",DVL,KDVL,48.113056,-98.907501,US,1455
"Devonport Airport",DPO,YDPO,-41.169724,146.430283,AU,33
"Dezful Airport",DEF,OIAD,32.438828,48.384682,IR,500
"Dhaalu Kudahuvadhoo Airport",DDD,VRMU,2.667222,72.892776,MV,6
"Dhaka Shahjalal International Airport",DAC,VGHS,23.84333,90.397781,BD,30
"Dhangadhi Airport",DHI,VNDH,28.753332,80.581947,NP,690
"Dharamsala Gaggal Kangra Airport",DHM,VIGG,32.165001,76.263,IN,2525
"Dharavandhoo Airport",DRV,VRMD,5.15,73.129997,MV,6
"Dibrugarh Airport",DIB,VEMN,27.48385,95.016922,IN,362
"Dickinson Theodore Roosevelt Regional Airport",DIK,KDIK,46.797329,-102.801003,US,2592
"Dien Bien Phu Airport",DIN,VVDB,21.397499,103.008003,VN,1611
"Diepholz Air Base",QCD,ETND,52.585564,8.340962,DE,118
"Dijon Longvic Airport",DIJ,LFSD,47.265831,5.095,FR,726
"Dikson Airport",DKS,UODD,73.517807,80.379669,RU,47
"Dili Presidente Nicolau Lobato International Airport",DIL,WPDL,-8.54641,125.524803,TL,25
"Dillingham Airport",DLG,PADL,59.044659,-158.505005,US,82
"Dillon Airport",DLN,KDLN,45.255402,-112.553001,US,5241
"Dimapur Airport",DMU,VEMR,25.879816,93.772865,IN,485
"Dinard Pleurtuit Saint-Malo Airport",DNR,LFRD,48.587769,-2.08,FR,219
"Dipolog Airport",DPL,RPMG,8.601389,123.334442,PH,12
"Dire Dawa International Airport",DIR,HADR,9.6247,41.854198,ET,3829
"Diu Airport",DIU,VA1P,20.716667,70.916664,IN,31
"Divinopolis Airport",DIQ,SNDV,-20.1807,-44.870899,BR,2608
"Diyarbakir Airport",DIY,LTCC,37.89389,40.201012,TR,2251
"Djanet Inedbirene Airport",DJG,DAAJ,24.292761,9.452444,DZ,3169
"Djerba Zarzis International Airport",DJE,DTTJ,33.875031,10.77546,TN,19
"Djibouti Ambouli International Airport",JIB,HDAM,11.54733,43.159481,DJ,49
"Dnipro Dnipropetrovsk International Airport",DNK,UKDD,48.35722,35.100552,UA,481
"Dobo Rar Gwamar Airport",DOB,WAPD,-5.77376,134.209427,ID,64
"Dodge City Regional Airport",DDC,KDDC,37.763119,-99.965401,US,2596
"Dodoma Airport",DOD,HTDO,-6.17043,35.752571,TZ,3637
"Doha Hamad International Airport",DOH,OTHH,25.272524,51.608604,QA,13
"Doha International Airport",DIA,OTBD,25.261059,51.565094,QA,35
"Dole Jura Airport",DLE,LFGJ,47.04277,5.435,FR,645
"Dolpa Airport",DOP,VNDP,28.985701,82.819099,NP,8200
"Dominica Douglas Charles Airport",DOM,TDPD,15.54702,-61.299999,DM,73
"Donaueschingen Villingen Airport",QCO,EDTD,47.973747,8.52224,DE,2228
"Doncaster Sheffield Airport",DSA,EGCN,53.47472,-1.00444,GB,55
"Donegal Airport",CFN,EIDL,55.044189,-8.341,IE,30
"Donetsk Sergey Prokofiev International Airport",DOK,UKCC,48.073608,37.739719,??,791
"Dong Hoi Airport",VDH,VVDH,17.514999,106.590553,VN,59
"Dongying Shengli Airport",DOY,ZSDY,37.510277,118.784447,CN,13
"Doomadgee Airport",DMD,YDMG,-17.940001,138.820007,AU,153
"Dortmund Airport",DTM,EDLW,51.518311,7.612242,DE,425
"Dothan Regional Airport",DHN,KDHN,31.321329,-85.4496,US,400
"Douala International Airport",DLA,FKKD,4.006081,9.719481,CM,33
"Dourados Airport",DOU,SBDO,-22.202778,-54.925556,BR,1503
"Dover Air Force Base",DOV,KDOV,39.129501,-75.466003,US,29
"Doylestown Airport",DYL,KDYL,40.333,-75.122299,US,394
"Drake Bay Airport",DRK,MRDK,8.718889,-83.639046,CR,22
"Dresden Airport",DRS,EDDC,51.132759,13.76716,DE,755
"Dryden Regional Airport",YHD,CYHD,49.831661,-92.744102,CA,1354
"Dubai Al Minhad Air Base",NHD,OMDM,25.0268,55.366199,AE,165
"Dubai International Airport",DXB,OMDB,25.252769,55.364441,AE,62
"Dubai World Central International Airport",DWC,OMDW,24.88611,55.172222,AE,170
"Dubbo City Airport",DBO,YSDU,-32.216599,148.574707,AU,935
"Dublin Airport",DUB,EIDW,53.421379,-6.27,IE,242
"Dublin New River Valley Airport",PSK,KPSK,37.137222,-80.678612,US,2105
"Dublin W.H. 'Bud' Barron Airport",DBN,KDBN,32.5644,-82.985298,US,309
"Dublin Weston Airport",QIW,EIWT,53.352337,-6.488054,IE,155
"DuBois Regional Airport",DUJ,KDUJ,41.178169,-78.89875,US,1798
"Dubrovnik Airport",DBV,LDDU,42.561352,18.26824,HR,527
"Dubuque Regional Airport",DBQ,KDBQ,42.400002,-90.699997,US,1077
"Duluth International Airport",DLH,KDLH,46.842079,-92.193604,US,1427
"Dumaguete City Sibulan Airport",DGT,RPVD,9.333714,123.3004,PH,15
"Dumai Pinang Kampai Airport",DUM,WIBD,1.609194,101.433502,ID,55
"Duncan Halliburton Airport",DUC,KDUC,34.472221,-97.959724,US,1113
"Dundee Airport",DND,EGPN,56.452492,-3.02583,GB,17
"Dunedin International Airport",DUD,NZDN,-45.928001,170.198303,NZ,4
"Dunhuang Airport",DNH,ZLDH,40.16111,94.809158,CN,9186
"Dunkeswell Airport",QKU,EGTU,50.860638,-3.233885,GB,833
"Duqm International Airport",DQM,OODQ,19.499168,57.641865,OM,377
"Durango International Airport",DGO,MMDO,24.124189,-104.528,MX,6104
"Durango La Plata County Airport",DRO,KDRO,37.151508,-107.752998,US,6685
"Durant Regional Airport",DUA,KDUA,33.942299,-96.394501,US,699
"Durban King Shaka International Airport",DUR,FALE,-29.616667,31.108334,ZA,304
"Durgapur Kazi Nazrul Islam Airport",RDP,VEDG,23.621389,87.243332,IN,289
"Dushanbe International Airport",DYU,UTDD,38.543331,68.824997,TJ,2575
"Dusseldorf International Airport",DUS,EDDL,51.289452,6.766775,DE,147
"Dusseldorf Monchengladbach Airport",MGL,EDLN,51.23035,6.504494,DE,125
"Dyersburg Regional Airport",QTD,KDYR,35.996822,-89.407188,US,319
"Dzaoudzi Pamandzi International Airport",DZA,FMCZ,-12.8066,45.280548,YT,23
"Eagle Airport",EAA,PAEG,64.778168,-141.150497,US,908
"Eagle County Regional Airport",EGE,KEGE,39.642551,-106.917,US,6547
"Eagle River Airport",EGV,KEGV,45.929169,-89.265831,US,1642
"Earlton Timiskaming Airport",YXR,CYXR,47.697742,-79.846527,CA,791
"East Hampton Airport",JPX,KJPX,40.959442,-72.251663,US,56
"East London Airport",ELS,FAEL,-33.0355,27.82593,ZA,435
"Easton Airport",ESN,KESN,38.802776,-76.06778,US,72
"Eastsound Orcas Island Airport",ESD,KORS,48.708332,-122.912498,US,31
"Eau Claire Chippewa Valley Regional Airport",EAU,KEAU,44.860001,-91.480003,US,913
"Eberswalde Finow Airport",QEE,EDAV,52.826389,13.701182,DE,119
"Echuca Airport",ECH,YECH,-36.1572,144.761993,AU,323
"Eday Airport",EOI,EGED,59.191422,-2.77168,GB,10
"Edinburgh Airport",EDI,EGPH,55.950001,-3.3725,GB,135
"Edmonton International Airport",YEG,CYEG,53.309719,-113.579002,CA,2373
"Edremit Balikesir Koca Seyit Airport",EDO,LTFD,39.549999,27.01,TR,50
"Eek Airport",EEK,PAEE,60.213673,-162.043884,US,12
"Eggenfelden Airport",QCE,EDME,48.395996,12.721446,DE,1340
"Egilsstadir Airport",EGS,BIEG,65.283333,-14.4013,IS,76
"Eilat Ramon Airport",ETM,LLER,29.723694,35.011417,IL,252
"Eindhoven Airport",EIN,EHEH,51.45013,5.374528,NL,74
"Eirunepe Amaury Feitosa Tomaz Airport",ERN,SWEI,-6.639178,-69.879814,BR,397
"Eisenach Kindel Airport",EIB,EDGE,50.992779,10.472778,DE,1101
"Ekati Airport",YOA,CYOA,64.699448,-110.614441,CA,1540
"El Aaiun Hassan Airport",EUN,GMML,27.151661,-13.2191,EH,207
"El Alamein International Airport",DBB,HEAL,30.924444,28.46139,EG,143
"El Bagre Airport",EBG,SKEB,7.59647,-74.808899,CO,180
"El Calafate International Airport",FTE,SAWC,-50.2803,-72.053101,AR,669
"El Coca Francisco de Orellana Airport",OCC,SECO,-0.46288,-76.986801,EC,834
"El Dorado South Arkansas Regional Airport",ELD,KELD,33.22097,-92.813202,US,277
"El Fasher Airport",ELF,HSFS,13.61489,25.32465,SD,2393
"El Hierro Airport",VDE,GCHI,27.81484,-17.886999,ES,103
"El Lencero Jalapa Airport",JAL,MMJA,19.472221,-96.781944,MX,3127
"El Monte San Gabriel Valley Airport",EMT,KEMT,34.085583,-118.035095,US,279
"El Nido Airport",ENI,RPEN,11.2025,119.416115,PH,17
"El Obeid Airport",EBD,HSOB,13.15321,30.23267,SD,1927
"El Oued Guemar Airport",ELU,DAUO,33.511391,6.776794,DZ,203
"El Palomar Airport",EPA,SADP,-34.610001,-58.612499,AR,59
"El Paso Biggs Field Airport",BIF,KBIF,31.849501,-106.379997,US,3948
"El Paso International Airport",ELP,KELP,31.807249,-106.376999,US,3961
"El Vigia Juan Pablo Perez Alfonso Airport",VIG,SVVG,8.6333,-71.650002,VE,249
"Elazig Airport",EZS,LTCA,38.606918,39.291409,TR,2927
"Elba Marina di Campo Airport",EBA,LIRJ,42.760269,10.23944,IT,31
"Elcho Island Airport",ELC,YELD,-12.019817,135.569794,AU,100
"Eldoret International Airport",EDL,HKEL,0.404458,35.238918,KE,6941
"Elim Airport",ELI,PFEL,64.6147,-162.272003,US,162
"Elista Airport",ESL,URWI,46.370594,44.332966,RU,501
"Elizabeth City Regional Airport",ECG,KECG,36.260578,-76.1745,US,10
"Elizabethtown Regional Airport",EKX,KEKX,37.688889,-85.92778,US,775
"Elk City Regional Business Airport",ELK,KELK,35.430801,-99.394302,US,2013
"Elkhart Municipal Airport",EKI,KEKM,41.719398,-86.003197,US,778
"Elko Regional Airport",EKO,KEKO,40.824909,-115.791,US,5140
"Ellensburg Bowers Airport",ELN,KELN,47.033001,-120.530998,US,1764
"Elmira Corning Regional Airport",ELM,KELM,42.16304,-76.895859,US,954
"Ely Airport",ELY,KELY,39.301945,-114.841942,US,6259
"Emden Airport",EME,EDWE,53.391178,7.227408,DE,2
"Emerald Airport",EMD,YEML,-23.559999,148.169998,AU,624
"Emmonak Airport",EMK,PAEM,62.776943,-164.520828,US,14
"Ende H. Hasan Aroeboesman Airport",ENE,WATE,-8.84929,121.660599,ID,49
"Enfidha Hammamet International Airport",NBE,DTNH,36.091946,10.413889,TN,130
"Enid Woodring Regional Airport",WDG,KWDG,36.3792,-97.7911,US,1167
"Ennis Big Sky Airport",QTE,KEKS,45.274384,-111.648827,US,5368
"Enniskillen St Angelo Airport",ENK,EGAB,54.39888,-7.65166,GB,155
"Enontekio Airport",ENF,EFET,68.362579,23.42432,FI,1005
"Enschede Twente Airport",ENS,EHTW,52.27441,6.885969,NL,115
"Ensenada Airport",ESE,MMES,31.79528,-116.601997,MX,66
"Enshi Xujiaping Airport",ENH,ZHES,30.320278,109.485001,CN,1607
"Entebbe International Airport",EBB,HUEN,0.042386,32.443501,UG,3782
"Enterprise Municipal Airport",ETS,KEDN,31.2997,-85.899902,US,361
"Enugu Akanu Ibiam International Airport",ENU,DNEN,6.474272,7.561961,NG,466
"Epinal Mirecourt Airport",EPL,LFSG,48.325001,6.066742,FR,1084
"Erbil International Airport",EBL,ORER,36.240482,43.946671,IQ,1270
"Ercan International Airport",ECN,LCEN,35.155071,33.502117,CY,376
"Erechim Airport",ERM,SSER,-27.663158,-52.272152,BR,2487
"Erenhot Saiwusu International Airport",ERL,ZBER,43.422501,112.096664,CN,3301
"Erfurt Weimar Airport",ERF,EDDE,50.979809,10.9581,DE,1036
"Erie International Airport",ERI,KERI,42.082001,-80.176201,US,731
"Erie Municipal Airport",QQE,KEIK,40.010277,-105.048058,US,5130
"Errachidia Moulay Ali Cherif Airport",ERH,GMFK,31.9475,-4.39833,MA,3428
"Erzincan Airport",ERC,LTCD,39.710201,39.527,TR,3783
"Erzurum Airport",ERZ,LTCE,39.956501,41.170158,TR,5763
"Esbjerg Airport",EBJ,EKEB,55.52594,8.553403,DK,97
"Escanaba Delta County Airport",ESC,KESC,45.72266,-87.093697,US,609
"Eskilstuna Airport",EKT,ESSU,59.351101,16.708401,SE,139
"Eskisehir Airport",AOE,LTBY,39.811401,30.527,TR,2588
"Esmeraldas Carlos Concha Torres International Airport",ESM,SEES,0.978519,-79.626602,EC,32
"Espargos Amilcar Cabral International Airport",SID,GVAC,16.741381,-22.9494,CV,177
"Esperance Airport",EPR,YESP,-33.68,121.82,AU,470
"Esquel Airport",EQS,SAVE,-42.907902,-71.139397,AR,2621
"Essaouira Airport",ESU,GMMI,31.397499,-9.681667,MA,383
"Essen Mulheim Airport",ESS,EDLE,51.402328,6.937333,DE,424
"Eua Kaufana Airport",EUA,NFTE,-21.378,-174.957993,TO,325
"Eugene Airport",EUG,KEUG,44.12458,-123.210999,US,374
"Eureka Airport",YEU,CYEU,79.99472,-85.814102,CA,272
"Eureka Murray Field Airport",EKA,KEKA,40.805,-124.114998,US,7
"Evansville Regional Airport",EVV,KEVV,38.036991,-87.532303,US,418
"Eveleth Virginia Municipal Airport",EVM,KEVM,47.426388,-92.495834,US,1378
"Evenes Harstad Narvik Airport",EVE,ENEV,68.491302,16.678101,NO,84
"Everett Paine Field",PAE,KPAE,47.9077,-122.282799,US,606
"Evora Airport",QPV,LPEV,38.533463,-7.889648,PT,806
"Evreux Fauville Air Base",EVX,LFOE,49.028702,1.21986,FR,464
"Exeter Airport",EXT,EGTE,50.73444,-3.41388,GB,102
"Ezhou Huahu Airport",EHU,ZHEC,30.341,115.039101,CN,69
"Fagernes Airport",VDB,ENFG,61.015549,9.288056,NO,2697
"Fair Isle Airport",FIE,EGEF,59.530926,-1.608972,GB,11
"Fairbanks International Airport",FAI,PAFA,64.815109,-147.856003,US,439
"Fairfield Travis Air Force Base",SUU,KSUU,38.262661,-121.927002,US,63
"Fairford Airport",FFD,EGVA,51.683544,-1.790277,GB,273
"Fairhope H. L. Sonny Callahan Airport",QTQ,KCQF,30.460573,-87.876991,US,66
"Fairmont Municipal Airport",FRM,KFRM,43.643902,-94.415604,US,1162
"Faisalabad International Airport",LYP,OPFA,31.365009,72.994843,PK,591
"Fakarava Airport",FAV,NTGF,-16.0541,-145.656006,PF,13
"Fakfak Torea Airport",FKQ,WASF,-2.92019,132.266998,ID,462
"Falfurrias Brooks County Airport",QTK,KBKS,27.204731,-98.122398,US,107
"Falls International Airport",INL,KINL,48.565578,-93.4021,US,1185
"Farah Airport",FAH,OAFR,32.365601,62.165138,AF,2400
"Fargo Hector International Airport",FAR,KFAR,46.92065,-96.815697,US,901
"Faribault Municipal Airport",FBL,KFBL,44.327831,-93.31144,US,1048
"Farmingdale Republic Airport",FRG,KFRG,40.728889,-73.41333,US,82
"Farmington Four Corners Regional Airport",FMN,KFMN,36.741249,-108.228996,US,5506
"Farmington Regional Airport",FAM,KFAM,37.761101,-90.428596,US,946
"Farnborough Airport",FAB,EGLF,51.275829,-0.77633,GB,238
"Faro Airport",FAO,LPFR,37.01442,-7.96591,PT,24
"Fayetteville Drake Field Airport",FYV,KFYV,36.005089,-94.169998,US,1252
"Fayetteville Municipal Airport",FYM,KFYM,35.0597,-86.564003,US,984
"Fayetteville Pope Field",POB,KPOB,35.170834,-79.014442,US,201
"Fayetteville Regional Airport",FAY,KFAY,34.990002,-78.879997,US,189
"Feira de Santana Airport",FEC,SBFE,-12.2003,-38.906799,BR,768
"Fergana International Airport",FEG,UTFF,40.358761,71.745018,UZ,1980
"Fergus Falls Municipal Airport",FFM,KFFM,46.285618,-96.151375,US,1186
"Fernando de Noronha Airport",FEN,SBFN,-3.85492,-32.423302,BR,193
"Fertoszentmiklos Meidl Airport",QEG,LHFM,47.582779,16.845278,HU,440
"Fes Saiss Airport",FEZ,GMFF,33.927261,-4.97795,MA,1900
"Figari Sud-Corse Airport",FSC,LFKF,41.50222,9.096667,FR,87
"Findlay Airport",FDY,KFDY,41.011944,-83.66861,US,813
"Fitchburg Municipal Airport",QTI,KFIT,42.553902,-71.759102,US,330
"Fitzroy Crossing Airport",FIZ,YFTZ,-18.1819,125.558998,AU,368
"Flagstaff Pulliam Airport",FLG,KFLG,35.140308,-111.668999,US,7014
"Flensburg Schaferhaus Airport",FLF,EDXF,54.773335,9.378889,DE,131
"Flin Flon Airport",YFO,CYFO,54.678051,-101.681,CA,997
"Flinders Island Airport",FLS,YFLI,-40.095001,147.996674,AU,34
"Flint Bishop International Airport",FNT,KFNT,42.96542,-83.743599,US,782
"Florence Peretola Airport",FLR,LIRQ,43.809952,11.2051,IT,142
"Florence Regional Airport",FLO,KFLO,34.18536,-79.723801,US,147
"Florencia Gustavo Artunduaga Paredes Airport",FLA,SKFL,1.588989,-75.563797,CO,803
"Flores Airport",FLW,LPFL,39.455269,-31.1313,PT,112
"Flores Mundo Maya International Airport",FRS,MGMM,16.913811,-89.866302,GT,427
"Florianopolis Hercilio Luz International Airport",FLN,SBFL,-27.670401,-48.5471,BR,20
"Floro Airport",FRO,ENFL,61.583611,5.024722,NO,37
"Foggia Gino Lisa Airport",FOG,LIBF,41.432911,15.53502,IT,266
"Fond Du Lac Airport",ZFD,CZFD,59.334209,-107.18119,CA,788
"Fond du Lac County Airport",FLD,KFLD,43.771198,-88.488403,US,808
"Forde Airport",FDE,ENBL,61.391109,5.756944,NO,1046
"Forli Airport",FRL,LIPK,44.194752,12.07009,IT,97
"Formosa International Airport",FMA,SARF,-26.2127,-58.2281,AR,194
"Fort Albany Airport",YFA,CYFA,52.241669,-81.591667,CA,53
"Fort Chipewyan Airport",YPY,CYPY,58.76722,-111.116997,CA,761
"Fort Collins Northern Colorado Regional Airport",FNL,KFNL,40.45182,-105.011002,US,5016
"Fort Dodge Regional Airport",FOD,KFOD,42.551189,-94.191803,US,1156
"Fort Frances Municipal Airport",YAG,CYAG,48.650002,-93.43,CA,1125
"Fort Good Hope Airport",YGH,CYGH,66.240555,-128.645752,CA,230
"Fort Hope Airport",YFH,CYFH,51.559345,-87.897957,CA,905
"Fort Huachuca Sierra Vista Municipal Airport",FHU,KFHU,31.58847,-110.344002,US,4719
"Fort Lauderdale Executive Airport",FXE,KFXE,26.197269,-80.1707,US,13
"Fort Lauderdale Hollywood International Airport",FLL,KFLL,26.07258,-80.152702,US,9
"Fort MacKay Albian Aerodrome",JHL,CAL4,57.2239,-111.418999,CA,1048
"Fort MacKay Firebag Aerodrome",YFI,CYFI,57.275833,-110.976669,CA,1762
"Fort MacKay Horizon Airport",HZP,CYNR,57.381668,-111.701111,CA,916
"Fort McMurray Airport",YMM,CYMM,56.653332,-111.221001,CA,1211
"Fort Meade Tipton Airport",FME,KFME,39.088482,-76.753716,US,151
"Fort Myers Page Field Airport",FMY,KFMY,26.586611,-81.863197,US,17
"Fort Nelson Airport",YYE,CYYE,58.83638,-122.596001,CA,1253
"Fort Pierce Treasure Coast International Airport",FPR,KFPR,27.4951,-80.368301,US,24
"Fort Severn Airport",YER,CYER,56.0177,-87.677505,CA,43
"Fort Simpson Airport",YFS,CYFS,61.760151,-121.236511,CA,561
"Fort Smith Airport",YSM,CYSM,60.020271,-111.960999,CA,671
"Fort Smith Regional Airport",FSM,KFSM,35.336578,-94.367401,US,469
"Fort St. John Airport",YXJ,CYXJ,56.238049,-120.739998,CA,2280
"Fort Stockton Pecos County Airport",FST,KFST,30.914251,-102.917603,US,2997
"Fort Wayne International Airport",FWA,KFWA,40.97847,-85.195099,US,814
"Fort Worth Alliance Airport",AFW,KAFW,32.98,-97.309998,US,722
"Fort Worth Meacham International Airport",FTW,KFTW,32.819771,-97.362396,US,710
"Fort Yukon Airport",FYU,PFYU,66.571487,-145.25,US,447
"Fortaleza Pinto Martins International Airport",FOR,SBFZ,-3.77628,-38.532501,BR,82
"Fortuna Rohnerville Airport",QTO,KFOT,40.553776,-124.132385,US,365
"Foshan Shadi Airport",FUO,ZGFS,23.0825,113.070831,CN,13
"Foz do Iguacu International Airport",IGU,SBFI,-25.5961,-54.487202,BR,787
"Franca Airport",FRC,SIMK,-20.592199,-47.3829,BR,3292
"Francisco Beltrao Airport",FBE,SSFB,-26.059431,-53.063942,BR,2119
"Francistown Phillip Gaonwe Matante International Airport",FRW,FBFT,-21.1591,27.468296,BW,3292
"Frankfort Capital City Airport",FFT,KFFT,38.18,-84.900002,US,812
"Frankfurt Airport",FRA,EDDF,50.037796,8.555783,DE,364
"Frankfurt Egelsbach Airport",QEF,EDFE,49.961109,8.643611,DE,385
"Frankfurt Hahn Airport",HHN,EDFH,49.948669,7.263892,DE,1649
"Franklin Venango Regional Airport",FKL,KFKL,41.379166,-79.859718,US,1540
"Frederick Municipal Airport",FDK,KFDK,39.417599,-77.374298,US,303
"Frederick Regional Airport",FDR,KFDR,34.352001,-98.983902,US,1258
"Fredericton International Airport",YFC,CYFC,45.868881,-66.537201,CA,68
"Freeport Grand Bahama International Airport",FPO,MYGF,26.55868,-78.695503,BS,7
"Freetown Lungi International Airport",FNA,GFLL,8.616444,-13.1954,SL,84
"Freiburg Airport",QCF,EDTF,48.022652,7.832583,DE,797
"Fremont Municipal Airport",FET,KFET,41.4491,-96.520203,US,1204
"Fresno Chandler Executive Airport",FCH,KFCH,36.73214,-119.820335,US,277
"Fresno Yosemite International Airport",FAT,KFAT,36.776192,-119.718002,US,336
"Fribourg Ecuvillens Airport",QYE,LSGE,46.755207,7.075892,CH,2993
"Friday Harbor Airport",FRD,KFHR,48.524807,-123.026497,US,113
"Friedrichshafen Airport",FDH,EDNY,47.67131,9.511486,DE,1367
"Fryeburg Eastern Slopes Regional Airport",FRY,KIZG,43.9911,-70.947899,US,454
"Fuerteventura Airport",FUE,GCFV,28.452709,-13.8637,ES,83
"Fujairah International Airport",FJR,OMFJ,25.112221,56.323959,AE,152
"Fukue Airport",FUJ,RJFE,32.66626,128.832794,JP,273
"Fukuoka Airport",FUK,RJFF,33.585941,130.450607,JP,32
"Fukushima Airport",FKS,RJSF,37.227428,140.430603,JP,1221
"Fullerton Municipal Airport",FUL,KFUL,33.872013,-117.979782,US,96
"Funadhoo Airport",FND,VRCF,6.161111,73.287224,MV,6
"Funafuti International Airport",FUN,NGFU,-8.525,179.196304,TV,9
"Funchal Cristiano Ronaldo Airport",FNC,LPMA,32.69788,-16.774401,PT,192
"Futuna Airport",FTA,NVVF,-19.5163,170.231903,VU,-1
"Futuna Island Pointe Vele Airport",FUT,NLWF,-14.3113,-178.065994,WF,20
"Fuvahmulah Airport",FVM,VRMR,-0.309444,73.432503,MV,6
"Fuyang Xiguan Airport",FUG,ZSFY,32.882156,115.734367,CN,104
"Fuyuan Dongji Airport",FYJ,ZYFY,48.199493,134.36644,CN,190
"Fuyun Koktokay Airport",FYN,ZWFY,46.804222,89.511978,CN,3059
"Fuzhou Changle International Airport",FOC,ZSFZ,25.934599,119.663368,CN,29
"Fuzuli International Airport",FZL,UBBF,39.594398,47.196602,AZ,1204
"Gabes Matmata International Airport",GAE,DTTG,33.734165,9.921366,TN,26
"Gaborone Sir Seretse Khama International Airport",GBE,FBSK,-24.555201,25.9182,BW,3299
"Gachsaran Airport",GCH,OIAH,30.336399,50.831657,IR,2396
"Gadsden Northeast Alabama Regional Airport",GAD,KGAD,33.97361,-86.087219,US,569
"Gainesville Lee Gilmer Memorial Airport",GVL,KGVL,34.273369,-83.831322,US,1269
"Gainesville Municipal Airport",GLE,KGLE,33.651402,-97.196999,US,845
"Gainesville Regional Airport",GNV,KGNV,29.69005,-82.271698,US,151
"Gaithersburg Montgomery County Airpark",GAI,KGAI,39.168331,-77.166,US,538
"Galcaio Airport",GLK,HCMR,6.780833,47.45472,SO,975
"Galena Airport",GAL,PAGA,64.73616,-156.936996,US,153
"Gallivare Lapland Airport",GEV,ESNG,67.132401,20.814631,SE,1027
"Gallup Municipal Airport",GUP,KGUP,35.511112,-108.786667,US,6472
"Galveston Scholes International Airport",GLS,KGLS,29.265329,-94.860397,US,6
"Gambela Airport",GMB,HAGM,8.128764,34.563129,ET,1771
"Gambell Airport",GAM,PAGM,63.766762,-171.731995,US,29
"Gan International Airport",GAN,VRMG,-0.693333,73.155556,MV,6
"Gander International Airport",YQX,CYQX,48.936939,-54.568001,CA,496
"Ganderkesee Airport",QCQ,EDWQ,53.036091,8.505381,DE,94
"Ganja International Airport",GNJ,UBBG,40.737778,46.317501,AZ,1083
"Ganzhou Huangjin Airport",KOW,ZSGZ,25.851667,114.776665,CN,148
"Gao International Airport",GAQ,GAGO,16.24843,-0.00545,ML,870
"Gap Tallard Airport",GAT,LFNA,44.455002,6.03778,FR,1986
"Garanhuns Airport",QGP,SNGN,-8.83428,-36.4716,BR,2533
"Garden City Regional Airport",GCK,KGCK,37.927521,-100.723999,US,2890
"Garfield County Regional Airport",RIL,KRIL,39.526268,-107.725487,US,5520
"Garissa Airport",GAS,HKGA,-0.4635,39.648289,KE,475
"Garoua International Airport",GOU,FKKR,9.335892,13.3701,CM,794
"Garowe Airport",GGR,HCMW,8.460833,48.572224,SO,1500
"Garze Gesar Airport",GZG,ZUGZ,31.7575,99.554169,CN,13346
"Gasan Marinduque Airport",MRQ,RPUW,13.361,121.825996,PH,32
"Gaspe Airport",YGP,CYGP,48.775269,-64.4786,CA,108
"Gatineau Ottawa Executive Airport",YND,CYND,45.52169,-75.563499,CA,211
"Gavle Airport",GVX,ESSK,60.5933,16.951401,SE,224
"Gaya Airport",GAY,VEGY,24.744301,84.951172,IN,380
"Gaylord Regional Airport",GLR,KGLR,45.009998,-84.699997,US,1328
"Gaziantep Oguzeli Airport",GZT,LTAJ,36.947182,37.47868,TR,2315
"Gazipasa Airport",GZP,LTFG,36.299,32.299999,TR,92
"Gdansk Lech Walesa Airport",GDN,EPGD,54.37756,18.466221,PL,489
"Gdynia Kosakowo Airport",QPO,EPOK,54.579674,18.517136,PL,143
"Geilenkirchen Air Base",GKE,ETNG,50.960865,6.042386,DE,268
"Gelendzhik Airport",GDZ,URKG,44.566666,38.016666,RU,98
"Gelephu Airport",GLU,VQGP,26.88348,90.465965,BT,984
"Geneina Airport",EGN,HSCN,13.48166,22.46722,SD,2650
"General Santos International Airport",GES,RPMR,6.058056,125.096107,PH,505
"Geneva International Airport",GVA,LSGG,46.23806,6.10895,CH,1411
"Genoa Cristoforo Colombo Airport",GOA,LIMJ,44.41333,8.8375,IT,13
"George Airport",GRJ,FAGG,-34.005501,22.37888,ZA,648
"George Town Exuma International Airport",GGT,MYEF,23.56263,-75.877899,BS,9
"George Town Owen Roberts International Airport",GCM,MWCR,19.29277,-81.357697,KY,8
"Georgetown Cheddi Jagan International Airport",GEO,SYCJ,6.498553,-58.254101,GY,95
"Georgetown County Airport",GGE,KGGE,33.311699,-79.319603,US,39
"Georgetown Delaware Coastal Airport",GED,KGED,38.688332,-75.357498,US,50
"Georgetown Eugene F. Correira International Airport",OGL,SYEC,6.807733,-58.105209,GY,7
"Georgetown Municipal Airport",QTG,KGTU,30.677477,-97.678467,US,759
"Geraldton Airport",GET,YGEL,-28.796078,114.702049,AU,121
"Geraldton Greenstone Regional Airport",YGQ,CYGQ,49.778332,-86.9394,CA,1144
"Ghardaia Noumerate Airport",GHA,DAUG,32.384102,3.794114,DZ,1512
"Ghat Airport",GHT,HLGT,25.145559,10.14264,LY,2296
"Gibraltar Airport",GIB,LXGB,36.151211,-5.34966,GI,15
"Giebelstadt Airport",GHF,EDQG,49.648056,9.966389,DE,981
"Gilgit Airport",GIL,OPGT,35.918781,74.333641,PK,4796
"Gillam Airport",YGX,CYGX,56.358051,-94.708,CA,5000
"Gillette Campbell County Airport",GCC,KGCC,44.346355,-105.532684,US,4363
"Gillies Bay Airport",YGB,CYGB,49.700001,-124.533333,CA,300
"Ginbata Airport",GBW,YGIA,-22.5816,120.036255,AU,1416
"Girona Costa Brava Airport",GRO,LEGE,41.900959,2.760547,ES,468
"Gisborne Airport",GIS,NZGS,-38.6633,177.978302,NZ,15
"Giza Sphinx International Airport",SPX,HESX,30.109722,30.894444,EG,553
"Gizo Nusatupe Airport",GZO,AGGN,-8.09777,156.863602,SB,13
"Gjoa Haven Airport",YHK,CYHK,68.635551,-95.849701,CA,152
"Gjogur Airport",GJR,BIGJ,65.9953,-21.3269,IS,83
"Gladstone Airport",GLT,YGLA,-23.871469,151.223511,AU,64
"Glasgow Airport",GGW,KGGW,48.212776,-106.615555,US,2294
"Glasgow International Airport",GLA,EGPF,55.871941,-4.43305,GB,26
"Glasgow Prestwick Airport",PIK,EGPK,55.509441,-4.58666,GB,65
"Glens Falls Floyd Bennett Memorial Airport",GFL,KGFL,43.341202,-73.610298,US,328
"Gloucester Gloucestershire Airport",GLO,EGBJ,51.894161,-2.16722,GB,101
"Goa International Airport",GOX,VOGA,15.744402,73.860626,IN,552
"Goa International Airport",GOI,VOGO,15.38083,73.831421,IN,184
"Goba Robe Airport",GOB,HAGB,7.119172,40.045189,ET,8034
"Gode Airport",GDE,HAGO,5.935128,43.578568,ET,834
"Gods Lake Narrows Airport",YGO,CYGO,54.557701,-94.491173,CA,621
"Gods River Airport",ZGI,CZGI,54.839142,-94.079651,CA,598
"Goiania Santa Genoveva Airport",GYN,SBGO,-16.632,-49.2206,BR,2450
"Gold Coast Airport",OOL,YBCG,-28.156067,153.502426,AU,21
"Golden Triangle Regional Airport",GTR,KGTR,33.450329,-88.591301,US,264
"Golfito Airport",GLF,MRGF,8.653775,-83.180496,CR,49
"Golmud Airport",GOQ,ZLGM,36.4006,94.786102,CN,9324
"Golog Maqin Airport",GMQ,ZLGL,34.415833,100.311111,CN,12427
"Golovin Airport",GLV,PAGL,64.550499,-163.007004,US,59
"Goma International Airport",GOM,FZNA,-1.67081,29.238461,CD,5089
"Gombe Lawanti International Airport",GMO,DNGO,10.298056,10.898889,NG,1551
"Gomel Airport",GME,UMGG,52.52702,31.016689,BY,471
"Gondar Airport",GDQ,HAGN,12.5199,37.43404,ET,6541
"Gondia Airport",GDB,VAGD,21.524944,80.288483,IN,993
"Goodland Municipal Airport",GLD,KGLD,39.370277,-101.699448,US,3656
"Goose Bay Airport",YYR,CYYR,53.31916,-60.4258,CA,160
"Gorakhpur Airport",GOP,VEGK,26.739445,83.449448,IN,259
"Gorgan Airport",GBT,OING,36.909401,54.401299,IR,-24
"Gorna Oryahovitsa Airport",GOZ,LBGO,43.15144,25.712879,BG,285
"Gorno-Altaysk Airport",RGK,UNBG,51.969166,85.836388,RU,959
"Goroka Airport",GKA,AYGA,-6.08168,145.3918,PG,5282
"Gorontalo Jalaluddin Airport",GTO,WAMG,0.637119,122.8498,ID,105
"Goshen Municipal Airport",GSH,KGSH,41.52639,-85.794167,US,827
"Gothenburg City Airport",GSE,ESGP,57.774719,11.87037,SE,59
"Gothenburg Landvetter Airport",GOT,ESGG,57.66283,12.27981,SE,506
"Gove Airport",GOV,YPGV,-12.271392,136.82016,AU,176
"Governador Valadares Airport",GVR,SBGV,-18.896944,-41.986111,BR,561
"Governor's Harbour Airport",GHB,MYEM,25.2847,-76.331001,BS,27
"Graciosa Airport",GRW,LPGR,39.092159,-28.0298,PT,86
"Grafton Clarence Valley Regional Airport",GFN,YGFN,-29.75,153.029999,AU,110
"Gran Canaria Airport",LPA,GCLP,27.931881,-15.3865,ES,78
"Granada Federico Garcia Lorca Airport",GRX,LEGR,37.188728,-3.77735,ES,1860
"Grand Canyon National Park Airport",GCN,KGCN,35.951942,-112.147499,US,6609
"Grand Canyon West Airport",GCW,K1G4,35.990398,-113.816002,US,4825
"Grand Forks International Airport",GFK,KGFK,47.949249,-97.176102,US,844
"Grand Island Central Nebraska Regional Airport",GRI,KGRI,40.967541,-98.309601,US,1847
"Grand Junction Regional Airport",GJT,KGJT,39.12241,-108.526001,US,4858
"Grand Marais Cook County Airport",GRM,KCKC,47.838333,-90.383057,US,1798
"Grand Rapids Gerald R. Ford International Airport",GRR,KGRR,42.880829,-85.522797,US,794
